Use,old_calval,SourceEntity,lab,UniqueID_v2,lat,long,siteid,waterbody_name,Year,Month,CollDate,daynum,CollMeth,Freq,SameYr_SameDay2,SameYr_DiftDay2,MultipleYrs,Unit_OBSPRED_final,MWMT_TolAnal,MWMT_source,MWMT_93_11,MWMT_Annual,Aug_93_11,NORWEST_Unit,Ecoregion_name,eco3,L4_eco_code,L4_eco_name,slope_nhd,wsarea_km2,elev_m,ElevWs,ICI,IWI,PctUrbCat,PctUrbWs,PctAgCat,PctAgWs,PctForCat,PctForWs,RdDensCat,RdDensWs,Tmean8110Cat,Tmean8110Ws,Precip8110Cat,Precip8110Ws
Y,NOT_CALVAL,USGS,USGS,BDB-000025262_1,47.40310202,-121.8992237,USGS_153,"ROCK CREEK AT CEDAR FALLS ROAD NEAR LANDSBURG, WA",1997,8,8/13/1997 0:00,225,targeted riffle,multi,,,USGS_153,WACoast_112738,17.14,annual,17.34,17.14,13.85,WACoast,Puget Lowland,PL,2e,Eastern Puget Uplands,2.737455,12.8943,292.8275168,404.0370503,0.899771086,0.854984097,0.074730437,0.048858798,0,0,87.52001708,89.04166958,1.765935816,1.704658444,9.570951031,9.02209464,1705.22638,1928.954469
Y,NOT_CALVAL,USGS,USGS,BDB-000026293_1,47.18177905,-121.3887037,USGS_157,"GREEN RIVER ABOVE TWIN CAMP CREEK NEAR LESTER, WA",1996,8,8/27/1996 0:00,240,targeted riffle,multi,,USGS_157__1996,USGS_157,WACoast_108976,15.48,annual,15.15,15.48,11.2,WACoast,Cascades,CA,4a,Western Cascades Lowlands and Valleys,2.514919,42.8517,786.680797,1157.748586,0.85656204,0.868410556,0,0.621678953,0,0,82.94717331,73.70045996,2.909270533,2.454848216,6.52591464,5.307700511,1581.058781,1924.742257
Y,NOT_CALVAL,USGS,USGS,BDB-000026295_1,47.18177905,-121.3887037,USGS_157,"GREEN RIVER ABOVE TWIN CAMP CREEK NEAR LESTER, WA",1996,8,8/28/1996 0:00,241,targeted riffle,multi,USGS_157__1996-08-28,USGS_157__1996,USGS_157,WACoast_108976,15.48,annual,15.15,15.48,11.2,WACoast,Cascades,CA,4a,Western Cascades Lowlands and Valleys,2.514919,42.8517,786.680797,1157.748586,0.85656204,0.868410556,0,0.621678953,0,0,82.94717331,73.70045996,2.909270533,2.454848216,6.52591464,5.307700511,1581.058781,1924.742257
Y,CAL,USGS,USGS,BDB-000026297_1,47.18177905,-121.3887037,USGS_157,"GREEN RIVER ABOVE TWIN CAMP CREEK NEAR LESTER, WA",1996,8,8/28/1996 0:00,241,targeted riffle,multi,USGS_157__1996-08-28,USGS_157__1996,USGS_157,WACoast_108976,15.48,annual,15.15,15.48,11.2,WACoast,Cascades,CA,4a,Western Cascades Lowlands and Valleys,2.51E+00,42.8517,786.680797,1157.748586,0.85656204,0.868410556,0,0.621678953,0,0,82.94717331,73.70045996,2.909270533,2.454848216,6.52591464,5.307700511,1581.058781,1924.742257
Y,NOT_CALVAL,USGS,USGS,BDB-000026299_1,47.27565642,-122.059559,USGS_140,"NEWAUKUM CREEK NEAR BLACK DIAMOND, WA",1996,8,8/21/1996 0:00,234,targeted riffle,multi,USGS_140__1996-08-21,USGS_140__1996,USGS_140,WACoast_110748,18.13,annual,17.8,18.13,14.08,WACoast,Puget Lowland,PL,2b,Eastern Puget Riverine Lowlands,1.86768,78.7239,163.9236485,258.0762225,0.421780516,0.305236978,11.35151156,15.19017732,23.45880261,33.63171794,46.23592175,27.22845286,3.220718442,3.843561904,10.59435786,10.01041708,1166.462515,1337.645618
Y,NOT_CALVAL,USGS,USGS,BDB-000026301_1,47.27565642,-122.059559,USGS_140,"NEWAUKUM CREEK NEAR BLACK DIAMOND, WA",1996,8,8/21/1996 0:00,234,targeted riffle,multi,USGS_140__1996-08-21,USGS_140__1996,USGS_140,WACoast_110748,18.13,annual,17.8,18.13,14.08,WACoast,Puget Lowland,PL,2b,Eastern Puget Riverine Lowlands,1.86768,78.7239,163.9236485,258.0762225,0.421780516,0.305236978,11.35151156,15.19017732,23.45880261,33.63171794,46.23592175,27.22845286,3.220718442,3.843561904,10.59435786,10.01041708,1166.462515,1337.645618
Y,CAL,USGS,USGS,BDB-000026303_1,47.27565642,-122.059559,USGS_140,"NEWAUKUM CREEK NEAR BLACK DIAMOND, WA",1996,8,8/22/1996 0:00,235,targeted riffle,multi,,USGS_140__1996,USGS_140,WACoast_110748,18.13,annual,17.8,18.13,14.08,WACoast,Puget Lowland,PL,2b,Eastern Puget Riverine Lowlands,1.86768,78.7239,163.9236485,258.0762225,0.421780516,0.305236978,11.35151156,15.19017732,23.45880261,33.63171794,46.23592175,27.22845286,3.220718442,3.843561904,10.59435786,10.01041708,1166.462515,1337.645618
Y,NOT_CALVAL,USGS,USGS,BDB-000026305_1,47.31232289,-122.165396,USGS_134,"BIG SOOS CREEK ABOVE HATCHERY NEAR AUBURN, WA",1996,8,8/14/1996 0:00,227,targeted riffle,multi,USGS_134__1996-08-14,USGS_134__1996,USGS_134,WACoast_111631,19.24,annual,18.91,19.24,14.45,WACoast,Puget Lowland,PL,2e,Eastern Puget Uplands,0.405693,211.0851,98.27139005,166.3079809,0.680115869,0.564141703,33.26024995,29.16785694,0.526200395,2.419213862,30.38807279,33.24990726,5.349597717,5.810727014,10.97646086,10.51024862,1085.098177,1275.307763
Y,NOT_CALVAL,USGS,USGS,BDB-000026307_1,47.31232289,-122.165396,USGS_134,"BIG SOOS CREEK ABOVE HATCHERY NEAR AUBURN, WA",1996,8,8/14/1996 0:00,227,targeted riffle,multi,USGS_134__1996-08-14,USGS_134__1996,USGS_134,WACoast_111631,19.24,annual,18.91,19.24,14.45,WACoast,Puget Lowland,PL,2e,Eastern Puget Uplands,0.405693,211.0851,98.27139005,166.3079809,0.680115869,0.564141703,33.26024995,29.16785694,0.526200395,2.419213862,30.38807279,33.24990726,5.349597717,5.810727014,10.97646086,10.51024862,1085.098177,1275.307763
Y,NOT_CALVAL,USGS,USGS,BDB-000026309_1,47.31232289,-122.165396,USGS_134,"BIG SOOS CREEK ABOVE HATCHERY NEAR AUBURN, WA",1996,8,8/15/1996 0:00,228,targeted riffle,multi,,USGS_134__1996,USGS_134,WACoast_111631,19.24,annual,18.91,19.24,14.45,WACoast,Puget Lowland,PL,2e,Eastern Puget Uplands,0.405693,211.0851,98.27139005,166.3079809,0.680115869,0.564141703,33.26024995,29.16785694,0.526200395,2.419213862,30.38807279,33.24990726,5.349597717,5.810727014,10.97646086,10.51024862,1085.098177,1275.307763
Y,CAL,USGS,USGS,BDB-000026311_1,47.46565533,-122.2326218,USGS_126,"SPRINGBROOK CREEK AT TUKWILA, WA",1996,8,8/12/1996 0:00,225,targeted riffle,single,,,,WACoast_113705,21.79,annual,21.45,21.79,16.77,WACoast,Puget Lowland,PL,2b,Eastern Puget Riverine Lowlands,0.090623,18.2124,20.09103251,61.03048774,0.436848374,0.46911271,82.89655172,77.61415299,0,0.098833762,3.113300493,4.719312117,11.24120522,11.52495645,11.65368171,11.38189944,938.3026459,977.1026488
Y,NOT_CALVAL,USGS,USGS,BDB-000026313_1,47.69565378,-122.2762368,USGS_119,"THORNTON CREEK NEAR SEATTLE, WA",1996,8,8/19/1996 0:00,232,targeted riffle,multi,,,USGS_119,WACoast_118080,19.18,annual,18.84,19.18,15.3,WACoast,Puget Lowland,PL,2f,Central Puget Lowland,0.591904,31.0167,59.5226749,97.43784232,0.45346892,0.449489527,85.43209877,88.77056553,0,0,5.569272977,3.302092099,13.62598647,13.17433576,11.25223779,11.01314179,885.6112661,916.4466922
Y,NOT_CALVAL,USGS,USGS,BDB-000026315_1,47.51425666,-123.3298868,USGS_077,"NF SKOKOMISH R BL STAIRCASE RPDS NR HOODSPORT, WA",1996,9,9/24/1996 0:00,268,targeted riffle,multi,,USGS_077__1996,USGS_077,WACoast_115932,12.55,annual,12.22,12.55,11.34,WACoast,Coast Range,CR,1d,Volcanics,0.564903,147.429,434.8711087,988.3068988,0.894492169,0.875599809,0,0.073255601,0,0.01098834,86.95652174,81.62322203,1.772557044,0.141584547,9.560851338,6.761849679,3432.89851,3786.136963
Y,NOT_CALVAL,USGS,USGS,BDB-000026317_1,47.51425666,-123.3298868,USGS_077,"NF SKOKOMISH R BL STAIRCASE RPDS NR HOODSPORT, WA",1996,9,9/25/1996 0:00,269,targeted riffle,multi,USGS_077__1996-09-25,USGS_077__1996,USGS_077,WACoast_115932,12.55,annual,12.22,12.55,11.34,WACoast,Coast Range,CR,1d,Volcanics,0.564903,147.429,434.8711087,988.3068988,0.894492169,0.875599809,0,0.073255601,0,0.01098834,86.95652174,81.62322203,1.772557044,0.141584547,9.560851338,6.761849679,3432.89851,3786.136963
Y,NOT_CALVAL,USGS,USGS,BDB-000026319_1,47.51425666,-123.3298868,USGS_077,"NF SKOKOMISH R BL STAIRCASE RPDS NR HOODSPORT, WA",1996,9,9/25/1996 0:00,269,targeted riffle,multi,USGS_077__1996-09-25,USGS_077__1996,USGS_077,WACoast_115932,12.55,annual,12.22,12.55,11.34,WACoast,Coast Range,CR,1d,Volcanics,0.564903,147.429,434.8711087,988.3068988,0.894492169,0.875599809,0,0.073255601,0,0.01098834,86.95652174,81.62322203,1.772557044,0.141584547,9.560851338,6.761849679,3432.89851,3786.136963
Y,CAL,USGS,USGS,BDB-000026321_1,47.30981514,-123.1770995,USGS_079,"SKOKOMISH RIVER NEAR POTLATCH, WA",1996,9,9/12/1996 0:00,256,targeted riffle,single,,,,WACoast_112665,16.12,annual,15.79,16.12,11.76,WACoast,Puget Lowland,PL,2f,Central Puget Lowland,0.132502,591.7482,76.35738616,608.7708844,0.622687892,0.798855408,1.093162512,0.579773627,10.27015736,0.587226121,33.79055842,71.73664407,1.50762082,1.235530799,10.47152446,8.632647432,2027.805352,3316.205604
Y,NOT_CALVAL,USGS,USGS,BDB-000026325_1,48.92650272,-122.4962765,USGS_104,"FISHTRAP CREEK AT FLYNN ROAD AT LYNDEN, WA",1996,9,9/3/1996 0:00,247,targeted riffle,multi,USGS_104__1996-09-03,USGS_104__1996,USGS_104,WACoast_135754,20.93,annual,20.6,20.93,16.09,WACoast,Puget Lowland,PL,2a,Fraser Lowland,0.175047,110.8134,21.65914701,57.90531927,0.172134665,0.143048291,24.1946461,18.55149357,69.06193285,73.2756741,1.378176044,1.92237808,3.016001179,2.964222946,10.32847399,10.32684922,1236.410632,1423.661805
Y,CAL,USGS,USGS,BDB-000026327_1,48.92650272,-122.4962765,USGS_104,"FISHTRAP CREEK AT FLYNN ROAD AT LYNDEN, WA",1996,9,9/3/1996 0:00,247,targeted riffle,multi,USGS_104__1996-09-03,USGS_104__1996,USGS_104,WACoast_135754,20.93,annual,20.6,20.93,16.09,WACoast,Puget Lowland,PL,2a,Fraser Lowland,0.175047,110.8134,21.65914701,57.90531927,0.172134665,0.143048291,24.1946461,18.55149357,69.06193285,73.2756741,1.378176044,1.92237808,3.016001179,2.964222946,10.32847399,10.32684922,1236.410632,1423.661805
Y,NOT_CALVAL,USGS,USGS,BDB-000026329_1,48.92650272,-122.4962765,USGS_104,"FISHTRAP CREEK AT FLYNN ROAD AT LYNDEN, WA",1996,9,9/5/1996 0:00,249,targeted riffle,multi,,USGS_104__1996,USGS_104,WACoast_135754,20.93,annual,20.6,20.93,16.09,WACoast,Puget Lowland,PL,2a,Fraser Lowland,0.175047,110.8134,21.65914701,57.90531927,0.172134665,0.143048291,24.1946461,18.55149357,69.06193285,73.2756741,1.378176044,1.92237808,3.016001179,2.964222946,10.32847399,10.32684922,1236.410632,1423.661805
Y,NOT_CALVAL,USGS,USGS,BDB-000026335_1,47.51425666,-123.3298868,USGS_077,"NF SKOKOMISH R BL STAIRCASE RPDS NR HOODSPORT, WA",1997,8,8/29/1997 0:00,241,targeted riffle,multi,,,USGS_077,WACoast_115932,12.01,annual,12.22,12.01,11.34,WACoast,Coast Range,CR,1d,Volcanics,0.564903,147.429,434.8711087,988.3068988,0.894492169,0.875599809,0,0.073255601,0,0.01098834,86.95652174,81.62322203,1.772557044,0.141584547,9.560851338,6.761849679,3432.89851,3786.136963
Y,CAL,USGS,USGS,BDB-000026337_1,47.33009155,-123.317104,USGS_078,"VANCE CREEK NEAR CAMP GOVEY NEAR POTLATCH, WA",1997,8,8/25/1997 0:00,237,targeted riffle,single,,,,WACoast_113086,14.92,annual,15.12,14.92,12.35,WACoast,Coast Range,CR,1d,Volcanics,2.058378,40.2282,280.7404898,484.1087966,0.867720562,0.867721576,0.246652572,0.375855743,0.880902044,0.055930914,60.21846371,75.56937671,2.408634837,2.469374775,10.0835407,9.39058811,2804.953531,3522.737701
Y,CAL,USGS,USGS,BDB-000026797_1,46.25466401,-119.6747111,USGS_197,"SNIPES CREEK AT MCCREADIE ROAD NR WHITSRAN, WA",2003,8,8/21/2003 0:00,233,targeted riffle,multi,,,USGS_197,UpColYak_101588,26.89,annual,25.91,26.89,20.46,UpColYak,Columbia Plateau,CP,10e,Pleistocene Lake Basins,1.910228,89.1612,226.9656094,573.8461006,0.240495318,0.265269765,4.313205043,0.425970041,42.66755143,53.66213106,0,0,2.744352391,1.400401696,11.49656326,9.879095615,217.7053018,251.8753412
Y,CAL,USGS,USGS,BDB-000026803_1,47.19815382,-122.5226251,USGS_099,"LEACH CREEK NEAR STEILACOOM, WA",1997,8,8/18/1997 0:00,230,targeted riffle,single,,,,WACoast_110759,18.53,annual,18.74,18.53,14.28,WACoast,Puget Lowland,PL,2g,Southern Puget Prairies,0.824611,20.6208,97.52181259,97.52181259,0.52948905,0.52948905,78.71857542,78.71857542,0,0,5.31599162,5.31599162,10.03302133,10.03302133,10.6412272,10.6412272,1044.411948,1044.411948
Y,NOT_CALVAL,USGS,USGS,BDB-000026804_1,47.18177905,-121.3887037,USGS_157,"GREEN RIVER ABOVE TWIN CAMP CREEK NEAR LESTER, WA",1997,8,8/20/1997 0:00,232,targeted riffle,multi,,,USGS_157,WACoast_108976,14.95,annual,15.15,14.95,11.2,WACoast,Cascades,CA,4a,Western Cascades Lowlands and Valleys,2.514919,42.8517,786.680797,1157.748586,0.85656204,0.868410556,0,0.621678953,0,0,82.94717331,73.70045996,2.909270533,2.454848216,6.52591464,5.307700511,1581.058781,1924.742257
Y,VAL,USGS,USGS,BDB-000026806_1,47.2056677,-121.4059265,USGS_156,"INTAKE CREEK NEAR LESTER, WA",1997,8,8/21/1997 0:00,233,targeted riffle,single,,,,WACoast_109385,14.69,annual,14.89,14.69,11.41,WACoast,Cascades,CA,4a,Western Cascades Lowlands and Valleys,11.18539,9.1926,871.629625,1058.124687,0.874440343,0.856398631,0.711283543,0.793029176,0,0,75.20206919,74.62306638,3.545653051,3.443773582,6.456156791,5.731679035,1772.479976,1937.470331
Y,NOT_CALVAL,USGS,USGS,BDB-000026807_1,47.27565642,-122.059559,USGS_140,"NEWAUKUM CREEK NEAR BLACK DIAMOND, WA",1997,8,8/16/1997 0:00,228,targeted riffle,multi,,,USGS_140,WACoast_110748,17.59,annual,17.8,17.59,14.08,WACoast,Puget Lowland,PL,2b,Eastern Puget Riverine Lowlands,1.87E+00,78.7239,163.9236485,258.0762225,0.421780516,0.305236978,11.35151156,15.19017732,23.45880261,33.63171794,46.23592175,27.22845286,3.220718442,3.843561904,10.59435786,10.01041708,1166.462515,1337.645618
Y,NOT_CALVAL,USGS,USGS,BDB-000026809_1,47.31232289,-122.165396,USGS_134,"BIG SOOS CREEK ABOVE HATCHERY NEAR AUBURN, WA",1997,8,8/12/1997 0:00,224,targeted riffle,multi,,,USGS_134,WACoast_111631,18.7,annual,18.91,18.7,14.45,WACoast,Puget Lowland,PL,2e,Eastern Puget Uplands,0.405693,211.0851,98.27139005,166.3079809,0.680115869,0.564141703,33.26024995,29.16785694,0.526200395,2.419213862,30.38807279,33.24990726,5.349597717,5.810727014,10.97646086,10.51024862,1085.098177,1275.307763
Y,VAL,USGS,USGS,BDB-000026811_1,47.38649132,-121.8462217,USGS_154,"TAYLOR CREEK NEAR SELLECK, WA",1997,8,8/22/1997 0:00,234,targeted riffle,single,,,,WACoast_112129,15.09,annual,15.3,15.09,12.43,WACoast,Cascades,CA,4a,Western Cascades Lowlands and Valleys,4.018288,44.8272,331.10125,694.051974,0.828156144,0.888101977,0,0.887407645,0,0,89.12601626,89.5900257,3.188624405,2.734386393,9.357704074,7.672000944,1763.240076,2506.212775
Y,VAL,USGS,USGS,BDB-000026812_1,47.71093184,-122.210958,USGS_130,"JUANITA CREEK AT JUANITA, WA",1997,8,8/14/1997 0:00,226,targeted riffle,single,,,,WACoast_118054,18.88,annual,19.09,18.88,15.64,WACoast,Puget Lowland,PL,2f,Central Puget Lowland,1.108576,17.6814,43.9793545,73.38159727,0.400080544,0.419021678,77.72486772,79.50727884,0,0,13.43915344,10.31253181,13.45850029,13.60937868,11.39524551,11.15708281,969.06804,994.0074202
Y,VAL,USGS,USGS,BDB-000026813_1,47.76648679,-122.2415151,USGS_124,"SWAMP CREEK NEAR BOTHELL, WA",1997,8,8/19/1997 0:00,231,targeted riffle,single,,,,WACoast_119719,20.59,annual,20.8,20.59,16.11,WACoast,Puget Lowland,PL,2f,Central Puget Lowland,0.975734,59.5755,70.67660431,129.8021092,0.588499251,0.520824229,57.81018812,72.21693481,0,0,19.19255971,8.3661908,7.551224033,9.449052823,11.07600543,10.65724985,999.7651193,947.7441722
Y,CAL,USGS,USGS,BDB-000026816_1,48.2842759,-121.6395724,USGS_155,"NF STILLAGUAMISH R AB SQUIRRE CR NR DARRINGTON, WA",1997,8,8/26/1997 0:00,238,targeted riffle,single,,,,WACoast_127425,18.63,annual,18.84,18.63,14.87,WACoast,North Cascades,NC,77a,North Cascades Lowland Forests,0.411991,140.499,255.5232373,739.126456,0.7789153,0.849206197,1.86801676,1.085772852,4.574022346,0.503491128,67.93528864,83.02286849,2.579888387,0.8362922,9.539441997,7.850647408,2276.405988,3068.891685
Y,CAL,USGS,USGS,BDB-000026817_1,48.73235031,-121.1665121,USGS_159,"STETATTLE CREEK BL CAMP DAYO CREEK NR NEWHALEM, WA",1997,8,8/8/1997 0:00,220,targeted riffle,single,,,,WACoast_132642,13.35,annual,13.55,13.35,10.6,WACoast,North Cascades,NC,77a,North Cascades Lowland Forests,4.056277,52.6347,1104.123905,1275.78713,0.867831757,0.85548947,0,0,0,0,87.04135119,52.5075663,0,0,5.865729703,5.056553899,2519.166008,2608.195077
Y,VAL,USGS,USGS,BDB-000026818_1,48.68123654,-121.2726251,USGS_158,"GOODELL CR NR N CASCADES NP BNDRY NR NEWHALEM, WA",1997,8,8/28/1997 0:00,240,targeted riffle,single,,,,WACoast_132298,13.69,annual,13.9,13.69,10.56,WACoast,North Cascades,NC,77a,North Cascades Lowland Forests,2.945481,100.6497,599.1337926,1252.899432,0.748184288,0.837862116,0.406903325,0.025931523,0,0,81.18422899,41.48328311,0.346908838,0.022108137,7.917057542,5.147287918,2205.298115,2757.426968
Y,CAL,USGS,USGS,BDB-000026820_1,48.94567132,-122.439329,USGS_107,"KAMM CREEK AT LYNDEN, WA",1997,8,8/27/1997 0:00,239,targeted riffle,single,,,,WACoast_135774,20.88,annual,21.09,20.88,16.21,WACoast,Puget Lowland,PL,2a,Fraser Lowland,0.001,21.8448,23.25326775,26.07483067,0.20685607,0.192791128,35.95679012,11.62656559,52.12191358,67.80652604,0,8.886783125,7.124726884,2.941054567,10.41032141,10.43467796,1285.502067,1268.212124
Y,NOT_CALVAL,USGS,USGS,BDB-000026821_1,48.92650272,-122.4962765,USGS_104,"FISHTRAP CREEK AT FLYNN ROAD AT LYNDEN, WA",1997,8,8/4/1997 0:00,216,targeted riffle,multi,,,USGS_104,WACoast_135754,20.39,annual,20.6,20.39,16.09,WACoast,Puget Lowland,PL,2a,Fraser Lowland,0.175047,110.8134,21.65914701,57.90531927,0.172134665,0.143048291,24.1946461,18.55149357,69.06193285,73.2756741,1.378176044,1.92237808,3.016001179,2.964222946,10.32847399,10.32684922,1236.410632,1423.661805
Y,CAL,USGS,USGS,BDB-000026823_1,48.92400218,-122.5287781,USGS_098,"BERTRAND CREEK NEAR LYNDEN, WA",1997,8,8/5/1997 0:00,217,targeted riffle,single,,,,WACoast_135698,18.33,annual,18.53,18.33,15.09,WACoast,Puget Lowland,PL,2a,Fraser Lowland,0.178436,92.9997,16.07268919,68.96389285,0.218351931,0.203738647,5,5.879375791,77.09459459,77.0455504,6.824324324,9.405314213,1.378566831,1.800963809,10.21146397,10.2416036,1171.639516,1476.450632
Y,NOT_CALVAL,USGS,USGS,BDB-000026825_1,47.18177905,-121.3887037,USGS_157,"GREEN RIVER ABOVE TWIN CAMP CREEK NEAR LESTER, WA",1998,8,8/31/1998 0:00,243,targeted riffle,multi,,,USGS_157,WACoast_108976,16.02,annual,15.15,16.02,11.2,WACoast,Cascades,CA,4a,Western Cascades Lowlands and Valleys,2.514919,42.8517,786.680797,1157.748586,0.85656204,0.868410556,0,0.621678953,0,0,82.94717331,73.70045996,2.909270533,2.454848216,6.52591464,5.307700511,1581.058781,1924.742257
Y,NOT_CALVAL,USGS,USGS,BDB-000026827_1,47.27565642,-122.059559,USGS_140,"NEWAUKUM CREEK NEAR BLACK DIAMOND, WA",1998,8,8/26/1998 0:00,238,targeted riffle,multi,,,USGS_140,WACoast_110748,18.67,annual,17.8,18.67,14.08,WACoast,Puget Lowland,PL,2b,Eastern Puget Riverine Lowlands,1.86768,78.7239,163.9236485,258.0762225,0.421780516,0.305236978,11.35151156,15.19017732,23.45880261,33.63171794,46.23592175,27.22845286,3.220718442,3.843561904,10.59435786,10.01041708,1166.462515,1337.645618
Y,NOT_CALVAL,USGS,USGS,BDB-000026829_1,47.31232289,-122.165396,USGS_134,"BIG SOOS CREEK ABOVE HATCHERY NEAR AUBURN, WA",1998,8,8/24/1998 0:00,236,targeted riffle,multi,,,USGS_134,WACoast_111631,19.78,annual,18.91,19.78,14.45,WACoast,Puget Lowland,PL,2e,Eastern Puget Uplands,0.405693,211.0851,98.27139005,166.3079809,0.680115869,0.564141703,33.26024995,29.16785694,0.526200395,2.419213862,30.38807279,33.24990726,5.349597717,5.810727014,10.97646086,10.51024862,1085.098177,1275.307763
Y,NOT_CALVAL,USGS,USGS,BDB-000026831_1,47.51425666,-123.3298868,USGS_077,"NF SKOKOMISH R BL STAIRCASE RPDS NR HOODSPORT, WA",1998,9,9/3/1998 0:00,246,targeted riffle,multi,,,USGS_077,WACoast_115932,13.09,annual,12.22,13.09,11.34,WACoast,Coast Range,CR,1d,Volcanics,0.564903,147.429,434.8711087,988.3068988,0.894492169,0.875599809,0,0.073255601,0,0.01098834,86.95652174,81.62322203,1.772557044,0.141584547,9.560851338,6.761849679,3432.89851,3786.136963
Y,NOT_CALVAL,USGS,USGS,BDB-000026833_1,47.69565378,-122.2762368,USGS_119,"THORNTON CREEK NEAR SEATTLE, WA",1998,9,9/10/1998 0:00,253,targeted riffle,multi,,,USGS_119,WACoast_118080,19.71,annual,18.84,19.71,15.3,WACoast,Puget Lowland,PL,2f,Central Puget Lowland,0.591904,31.0167,59.5226749,97.43784232,0.45346892,0.449489527,85.43209877,88.77056553,0,0,5.569272977,3.302092099,13.62598647,13.17433576,11.25223779,11.01314179,885.6112661,916.4466922
Y,NOT_CALVAL,USGS,USGS,BDB-000026835_1,48.92650272,-122.4962765,USGS_104,"FISHTRAP CREEK AT FLYNN ROAD AT LYNDEN, WA",1998,9,9/1/1998 0:00,244,targeted riffle,multi,,,USGS_104,WACoast_135754,21.47,annual,20.6,21.47,16.09,WACoast,Puget Lowland,PL,2a,Fraser Lowland,0.175047,110.8134,21.65914701,57.90531927,0.172134665,0.143048291,24.1946461,18.55149357,69.06193285,73.2756741,1.378176044,1.92237808,3.016001179,2.964222946,10.32847399,10.32684922,1236.410632,1423.661805
Y,CAL,USGS,USGS,BDB-000027010_1,46.94429588,-120.4502972,USGS_171,JOHNSON DRAIN AT SOUTH FERGUSON ROAD,2000,9,9/19/2000 0:00,263,targeted riffle,single,,,,UpColYak_112671,21.2,annual,21.2,21.2,16.44,UpColYak,Columbia Plateau,CP,10e,Pleistocene Lake Basins,0.566815,40.8654,479.593974,595.9855631,0.166373122,0.271050242,1.228526809,0.330352817,93.07652264,59.38202,0,0.033035282,1.434918615,1.441138066,9.374430646,8.914879052,218.3545872,236.7439234
Y,NOT_CALVAL,USGS,USGS,BDB-000027878_1,44.95567759,-122.6284199,USGS_059,"LITTLE ABIQUA CREEK NEAR SCOTTS MILLS, OR",1997,8,8/14/1997 0:00,226,targeted riffle,multi,,,USGS_059,ORCoast_211234,18.38,annual,18.97,18.38,14.09,ORCoast,Cascades,CA,4a,Western Cascades Lowlands and Valleys,3.246323,25.3368,332.1238921,560.9023064,0.629072523,0.8250277,0,0.021312873,3.516998828,0.106564365,39.97655334,62.9759875,0.176000896,1.149946348,10.38373944,9.39342816,1603.034691,1958.586497
Y,NOT_CALVAL,USGS,USGS,BDB-000027880_1,45.10039816,-122.8217596,USGS_045,"ZOLLNER CREEK NEAR MT ANGEL, OR",1997,8,8/11/1997 0:00,223,targeted riffle,multi,,,USGS_045,ORCoast_213002,21.43,annual,22.03,21.43,18.03,ORCoast,Willamette Valley,WV,3c,Prairie Terraces,0.23589,40.6125,50.99809662,72.22409884,0.185364113,0.157469729,6.473429952,5.017174515,82.36714976,87.83379501,2.608695652,1.737396122,2.675341792,1.912082996,11.83824453,11.75655077,1070.812228,1114.258815
Y,NOT_CALVAL,USGS,USGS,BDB-000027883_1,44.95567759,-122.6284199,USGS_059,"LITTLE ABIQUA CREEK NEAR SCOTTS MILLS, OR",1998,8,8/4/1998 0:00,216,targeted riffle,multi,,,USGS_059,ORCoast_211234,19.48,annual,18.97,19.48,14.09,ORCoast,Cascades,CA,4a,Western Cascades Lowlands and Valleys,3.246323,25.3368,332.1238921,560.9023064,0.629072523,0.8250277,0,0.021312873,3.516998828,0.106564365,39.97655334,62.9759875,0.176000896,1.149946348,10.38373944,9.39342816,1603.034691,1958.586497
Y,NOT_CALVAL,USGS,USGS,BDB-000027885_1,45.10039816,-122.8217596,USGS_045,"ZOLLNER CREEK NEAR MT ANGEL, OR",1998,8,8/7/1998 0:00,219,targeted riffle,multi,,,USGS_045,ORCoast_213002,22.53,annual,22.03,22.53,18.03,ORCoast,Willamette Valley,WV,3c,Prairie Terraces,0.23589,40.6125,50.99809662,72.22409884,0.185364113,0.157469729,6.473429952,5.017174515,82.36714976,87.83379501,2.608695652,1.737396122,2.675341792,1.912082996,11.83824453,11.75655077,1070.812228,1114.258815
Y,NOT_CALVAL,USGS,USGS,BDB-000028463_1,46.87655424,-117.3635161,USGS_221,"SOUTH FORK PALOUSE RIVER AT COLFAX, WA",1995,8,8/8/1995 0:00,220,targeted riffle,multi,,,USGS_221,MidCol_114872,26.31,annual,26.69,26.31,18.79,MidCol,Columbia Plateau,CP,10h,Palouse Hills,0.389171,711.6741,680.5562312,812.0246184,0.259785235,0.196168629,5.98755832,3.992543778,64.87817522,80.52390835,15.52617937,7.230107152,2.54463604,1.906274091,8.942270203,8.283990023,503.9101372,581.7481633
Y,NOT_CALVAL,USGS,USGS,BDB-000028467_1,47.30265108,-118.3691441,USGS_212,"CRAB CREEK AT ROCKY FORD ROAD NEAR RITZVILLE, WA",1995,9,9/7/1995 0:00,250,targeted riffle,multi,,USGS_212__1995,USGS_212,UpColYak_117079,24.43,annual,24.4,24.43,18.27,UpColYak,Columbia Plateau,CP,10a,Channeled Scablands,0.298906,1141.47,528.0031961,701.2069665,0.741676565,0.258111973,1.694915254,0.327288496,3.87409201,67.96396752,0,2.149018371,0.958878549,0.920562656,9.170906122,8.204170464,297.9001255,359.4259482
Y,NOT_CALVAL,USGS,USGS,BDB-000028468_1,47.30265108,-118.3691441,USGS_212,"CRAB CREEK AT ROCKY FORD ROAD NEAR RITZVILLE, WA",1995,9,9/6/1995 0:00,249,targeted riffle,multi,USGS_212__1995-09-06,USGS_212__1995,USGS_212,UpColYak_117079,24.43,annual,24.4,24.43,18.27,UpColYak,Columbia Plateau,CP,10a,Channeled Scablands,0.298906,1141.47,528.0031961,701.2069665,0.741676565,0.258111973,1.694915254,0.327288496,3.87409201,67.96396752,0,2.149018371,0.958878549,0.920562656,9.170906122,8.204170464,297.9001255,359.4259482
Y,NOT_CALVAL,USGS,USGS,BDB-000028469_1,47.30265108,-118.3691441,USGS_212,"CRAB CREEK AT ROCKY FORD ROAD NEAR RITZVILLE, WA",1995,9,9/6/1995 0:00,249,targeted riffle,multi,USGS_212__1995-09-06,USGS_212__1995,USGS_212,UpColYak_117079,24.43,annual,24.4,24.43,18.27,UpColYak,Columbia Plateau,CP,10a,Channeled Scablands,0.298906,1141.47,528.0031961,701.2069665,0.741676565,0.258111973,1.694915254,0.327288496,3.87409201,67.96396752,0,2.149018371,0.958878549,0.920562656,9.170906122,8.204170464,297.9001255,359.4259482
Y,NOT_CALVAL,USGS,USGS,BDB-000028471_1,46.93041061,-119.8997709,USGS_188,"SAND HOLLOW CREEK AT S RD SW NEAR VANTAGE, WA",1995,10,10/31/1995 0:00,304,targeted riffle,multi,USGS_188__1995-10-31 ,,USGS_188,UpColYak_111948,21.91,annual,21.88,21.91,16.81,UpColYak,Columbia Plateau,CP,10g,Yakima Folds,1.076972,124.6041,392.3775959,385.1381394,0.256653388,0.180779977,1.611009653,1.423628918,74.52713279,84.11545045,0,0,0.943472405,0.986296995,10.38955338,10.37737987,197.7731911,193.3983155
Y,NOT_CALVAL,USGS,USGS,BDB-000028472_1,46.93041061,-119.8997709,USGS_188,"SAND HOLLOW CREEK AT S RD SW NEAR VANTAGE, WA",1995,10,10/31/1995 0:00,304,targeted riffle,multi,USGS_188__1995-10-31 ,,USGS_188,UpColYak_111948,21.91,annual,21.88,21.91,16.81,UpColYak,Columbia Plateau,CP,10g,Yakima Folds,1.076972,124.6041,392.3775959,385.1381394,0.256653388,0.180779977,1.611009653,1.423628918,74.52713279,84.11545045,0,0,0.943472405,0.986296995,10.38955338,10.37737987,197.7731911,193.3983155
Y,CAL,USGS,USGS,BDB-000028669_1,46.72099705,-117.137114,USGS_226,"PARADISE CREEK AT PULLMAN, WA",1993,8,8/18/1993 0:00,230,targeted riffle,single,,,,MidCol_113631,22.16,annual,23.44,22.16,16.3,MidCol,Columbia Plateau,CP,10h,Palouse Hills,0.488805,77.3703,778.8553645,837.9296083,0.164270068,0.187420561,8.792629707,13.69478986,82.72183611,63.66396408,1.664780992,10.65176172,3.492478565,3.778230192,8.471411842,8.182032648,480.1933778,641.2445135
Y,CAL,USGS,USGS,BDB-000028670_1,46.87655424,-117.3635161,USGS_221,"SOUTH FORK PALOUSE RIVER AT COLFAX, WA",1993,8,8/19/1993 0:00,231,targeted riffle,multi,,,USGS_221,MidCol_114872,25.41,annual,26.69,25.41,18.79,MidCol,Columbia Plateau,CP,10h,Palouse Hills,0.389171,711.6741,680.5562312,812.0246184,0.259785235,0.196168629,5.98755832,3.992543778,64.87817522,80.52390835,15.52617937,7.230107152,2.54463604,1.906274091,8.942270203,8.283990023,503.9101372,581.7481633
Y,CAL,USGS,USGS,BDB-000028671_1,46.94321572,-117.7979891,USGS_216,"REBEL FLAT CREEK AT WINONA, WA",1993,8,8/20/1993 0:00,232,targeted riffle,single,,,,MidCol_115702,18.9,annual,20.17,18.9,14.63,MidCol,Columbia Plateau,CP,10a,Channeled Scablands,0.453267,197.7777,486.0972213,621.3088197,0.309792796,0.187030732,1.46460537,0.622062042,56.5093572,94.50564952,2.481692433,0.28122483,2.563339923,1.050403312,10.15549908,9.361478296,391.3537051,453.0090642
Y,CAL,USGS,USGS,BDB-000028672_1,47.20433591,-117.5246394,USGS_218,"PINE CREEK AT PINE CITY ROAD AT PINE CITY, WA",1993,8,8/30/1993 0:00,242,targeted riffle,single,,,,MidCol_117203,23.07,annual,24.34,23.07,18.34,MidCol,Columbia Plateau,CP,10h,Palouse Hills,0.394083,786.7737,667.5090634,769.9661821,0.2101461,0.19215323,0.920938315,0.579849072,86.1164205,91.91414253,3.57949609,2.450031057,1.586992702,1.261435758,8.861635009,8.318310674,439.9668654,495.4288961
Y,CAL,USGS,USGS,BDB-000028673_1,46.86154545,-117.8935513,USGS_215,"UNION FLAT CREEK NEAR LACROSSE, WA",1993,8,8/17/1993 0:00,229,targeted riffle,single,,,,MidCol_114934,20.09,annual,21.36,20.09,14.97,MidCol,Columbia Plateau,CP,10a,Channeled Scablands,0.252716,774.99,463.6830213,727.6918521,0.355330613,0.16985216,0,0.516664731,34.82315678,93.08593659,0,0.555220067,0.554438475,0.953127821,10.28344579,9.100488965,375.9436119,524.7710115
Y,CAL,USGS,USGS,BDB-000028675_1,46.76071901,-117.226007,USGS_223,"SF PALOUSE R. AT ARMSTRONG RD NR PULLMAN, WA",1993,8,8/31/1993 0:00,243,targeted riffle,single,,,,MidCol_113850,24.25,annual,25.53,24.25,17.99,MidCol,Columbia Plateau,CP,10h,Palouse Hills,0.318681,412.5078,741.72498,829.7115959,0.205523181,0.18990029,0,6.363152406,90.21179164,75.86932902,5.151688609,8.218971859,1.369384731,2.376921185,8.682541427,8.256677293,510.6387031,605.1442135
Y,VAL,USGS,USGS,BDB-000028680_1,47.4665216,-119.876164,USGS_189,"DOUGLAS CREEK NEAR PALISADES, WA",1993,9,9/3/1993 0:00,246,targeted riffle,single,,,,UpColYak_121598,20.06,annual,20.65,20.06,17.74,UpColYak,Columbia Plateau,CP,10a,Channeled Scablands,3.263255,530.847,550.6557182,798.1878702,0.640997269,0.310657079,0.095541401,0.434023363,7.850318471,62.17927199,0,2.007188512,0.339660225,0.894099245,9.380653234,7.944729009,248.1355963,291.0100795
Y,NOT_CALVAL,USGS,USGS,BDB-000028682_1,47.30265108,-118.3691441,USGS_212,"CRAB CREEK AT ROCKY FORD ROAD NEAR RITZVILLE, WA",1993,9,9/1/1993 0:00,244,targeted riffle,multi,,,USGS_212,UpColYak_117079,23.81,annual,24.4,23.81,18.27,UpColYak,Columbia Plateau,CP,10a,Channeled Scablands,0.298906,1141.47,528.0031961,701.2069665,0.741676565,0.258111973,1.694915254,0.327288496,3.87409201,67.96396752,0,2.149018371,0.958878549,0.920562656,9.170906122,8.204170464,297.9001255,359.4259482
Y,CAL,USGS,USGS,BDB-000028686_1,47.29570856,-118.2730276,USGS_213,"CRAB BLW TOKIO RD. ABV RITZVILLE, WA",1993,9,9/1/1993 0:00,244,targeted riffle,single,,,,UpColYak_116925,23.89,annual,24.48,23.89,18.16,UpColYak,Columbia Plateau,CP,10a,Channeled Scablands,0.346435,1054.3131,576.8361321,707.8329066,0.601193626,0.263593604,0,0.336503454,14.6123323,66.90912785,0,2.326671271,0.831515278,0.935379931,8.938384244,8.167332605,309.4168311,363.6390046
Y,NOT_CALVAL,USGS,USGS,BDB-000028692_1,46.87655424,-117.3635161,USGS_221,"SOUTH FORK PALOUSE RIVER AT COLFAX, WA",1994,8,8/30/1994 0:00,242,targeted riffle,multi,USGS_221__1994-08-30 ,,USGS_221,MidCol_114872,27.37,annual,26.69,27.37,18.79,MidCol,Columbia Plateau,CP,10h,Palouse Hills,0.389171,711.6741,680.5562312,812.0246184,0.259785235,0.196168629,5.98755832,3.992543778,64.87817522,80.52390835,15.52617937,7.230107152,2.54463604,1.906274091,8.942270203,8.283990023,503.9101372,581.7481633
Y,NOT_CALVAL,USGS,USGS,BDB-000028693_1,46.87655424,-117.3635161,USGS_221,"SOUTH FORK PALOUSE RIVER AT COLFAX, WA",1994,8,8/30/1994 0:00,242,targeted riffle,multi,USGS_221__1994-08-30 ,,USGS_221,MidCol_114872,27.37,annual,26.69,27.37,18.79,MidCol,Columbia Plateau,CP,10h,Palouse Hills,0.389171,711.6741,680.5562312,812.0246184,0.259785235,0.196168629,5.98755832,3.992543778,64.87817522,80.52390835,15.52617937,7.230107152,2.54463604,1.906274091,8.942270203,8.283990023,503.9101372,581.7481633
Y,NOT_CALVAL,USGS,USGS,BDB-000028694_1,46.87655424,-117.3635161,USGS_221,"SOUTH FORK PALOUSE RIVER AT COLFAX, WA",1994,8,8/30/1994 0:00,242,targeted riffle,multi,USGS_221__1994-08-30 ,,USGS_221,MidCol_114872,27.37,annual,26.69,27.37,18.79,MidCol,Columbia Plateau,CP,10h,Palouse Hills,0.389171,711.6741,680.5562312,812.0246184,0.259785235,0.196168629,5.98755832,3.992543778,64.87817522,80.52390835,15.52617937,7.230107152,2.54463604,1.906274091,8.942270203,8.283990023,503.9101372,581.7481633
Y,CAL,USGS,USGS,BDB-000028695_1,47.30265108,-118.3691441,USGS_212,"CRAB CREEK AT ROCKY FORD ROAD NEAR RITZVILLE, WA",1994,9,9/13/1994 0:00,256,targeted riffle,multi,,,USGS_212,UpColYak_117079,25.36,annual,24.4,25.36,18.27,UpColYak,Columbia Plateau,CP,10a,Channeled Scablands,0.298906,1141.47,528.0031961,701.2069665,0.741676565,0.258111973,1.694915254,0.327288496,3.87409201,67.96396752,0,2.149018371,0.958878549,0.920562656,9.170906122,8.204170464,297.9001255,359.4259482
Y,CAL,USGS,USGS,BDB-000031948_1,46.94627921,-120.4502527,USGS_172,"PARK CREEK AT S. FERGUSON ROAD NR ELLENSBURG, WA",2000,9,9/18/2000 0:00,262,targeted riffle,multi,,,USGS_172,UpColYak_113099,20.68,annual,20.68,20.68,16.36,UpColYak,Columbia Plateau,CP,10e,Pleistocene Lake Basins,0.659633,175.7043,520.4050538,776.1809067,0.171205959,0.49983846,4.178166936,0.776531935,72.40887028,13.07093793,0,1.818908245,2.066343473,1.62153894,9.187629005,8.114139178,226.1463487,320.6295046
Y,NOT_CALVAL,USGS,USGS,BDB-000031949_1,46.95222084,-120.4526723,USGS_170,"CARIBOU CREEK AT S FERGUSON ROAD NR ELLENSBURG, WA",2000,9,9/20/2000 0:00,264,targeted riffle,multi,,,USGS_170,UpColYak_113561,20.84,annual,20.84,20.84,16.48,UpColYak,Columbia Plateau,CP,10e,Pleistocene Lake Basins,6.23E-01,101.7783,474.1884291,882.9029063,0.171859648,0.432014573,3.655133929,1.128334822,84.54241071,23.65523889,0,8.122065313,1.998127719,1.219728302,9.407279043,7.498257119,215.4749188,443.6651256
Y,CAL,USGS,USGS,BDB-000031950_1,46.98510233,-120.342433,USGS_178,PARK CREEK AT PARK CREEK ROAD,2000,9,9/20/2000 0:00,264,targeted riffle,single,,,,UpColYak_113297,20.05,annual,20.06,20.05,15.5,UpColYak,Columbia Plateau,CP,10e,Pleistocene Lake Basins,1.796383,79.5636,597.2196264,871.1187616,0.436293497,0.530550903,0.287356322,0.081444279,18.5704023,10.87733587,0,3.974933261,1.55024249,1.428856814,8.812320322,7.678292746,243.1917288,389.9983325
Y,CAL,USGS,USGS,BDB-000031951_1,46.90762726,-120.3608969,USGS_177,BADGER CREEK UPSTREAM OF WIPPLE WASTEWAY,2000,9,9/21/2000 0:00,265,targeted riffle,single,,,,UpColYak_111499,20.81,annual,20.81,20.81,15.79,UpColYak,Columbia Plateau,CP,10e,Pleistocene Lake Basins,1.153206,78.7662,655.3861691,720.066969,0.269731617,0.359976953,0.1799275,0.087981901,53.78244648,31.95114148,0,0,1.780657277,1.368443876,8.633744727,8.392383157,243.9329732,259.0583986
Y,NOT_CALVAL,USGS,USGS,BDB-000031952_1,46.8573485,-120.4972898,USGS_165,"UMTANUM CREEK NEAR MOUTH AT UMTANUM, WA",2000,9,9/22/2000 0:00,266,targeted riffle,multi,,,USGS_165,UpColYak_111381,23.24,annual,23.25,23.24,17.12,UpColYak,Columbia Plateau,CP,10g,Yakima Folds,1.909401,134.442,617.3823463,878.5611559,0.859330586,0.859255668,0,0.006694337,0,0,3.593073593,14.37274066,0.428805575,0.795875589,8.76589263,7.601440476,336.4061906,545.3828509
Y,NOT_CALVAL,USGS,USGS,BDB-000031953_1,46.25735555,-119.7114207,USGS_194,"SPRING CREEK AT MCCREADIE RD NEAR PROSSER, WA",2000,9,9/23/2000 0:00,267,targeted riffle,multi,,,USGS_194,UpColYak_101736,25.17,annual,25.17,25.17,20.04,UpColYak,Columbia Plateau,CP,10e,Pleistocene Lake Basins,1.714326,88.5132,293.2416498,554.5964289,0.166623502,0.307990357,2.237040224,0.631431244,87.63174876,36.92601781,0,0,1.330565732,1.340635368,11.08543517,9.875356313,222.7940266,245.2932585
Y,CAL,USGS,USGS,BDB-000031957_1,46.31095894,-120.788125,USGS_160,"TOPPENISH CREEK NEAR FORT SIMCOE, WA",2000,9,9/26/2000 0:00,270,targeted riffle,single,,,,UpColYak_102918,22.96,annual,22.96,22.96,17.89,UpColYak,Columbia Plateau,CP,10g,Yakima Folds,0.001,315.5022,415.4305618,1080.665099,0.448501447,0.873057084,8.146067416,5.433052448,5.617977528,0.032804843,5.617977528,49.99001592,1.135834539,1.716201262,9.800592597,6.73066599,297.3137262,741.1086193
Y,CAL,USGS,USGS,BDB-000032473_1,46.52958009,-120.7669657,USGS_161,AHTANUM CREEK BELOW BACHELOR CREEK,2000,9,9/26/2000 0:00,270,targeted riffle,single,,,,UpColYak_106037,24.5,annual,24.5,24.5,17.39,UpColYak,Columbia Plateau,CP,10e,Pleistocene Lake Basins,0.963636,316.0593,654.9036209,1244.035914,0.818223333,0.775395326,0,2.395373273,0.690250216,2.783781398,0.488927236,41.35293598,1.576902625,1.49325626,8.745845767,5.898798151,378.8623014,756.7205866
Y,CAL,USGS,USGS,BDB-000032474_1,46.19449075,-119.8514027,USGS_190,JD 51.4 AT YAKIMA RIVER,2000,9,9/27/2000 0:00,271,targeted riffle,single,,,,UpColYak_101537,24.17,annual,24.17,24.17,19.72,UpColYak,Columbia Plateau,CP,10e,Pleistocene Lake Basins,1.068379,6.8319,238.8818402,249.7613964,0.172154273,0.153367955,2.941176471,5.414306415,58.20747218,64.99802398,0,0,3.068725702,3.605124625,11.41403959,11.33876816,215.457608,215.8765933
Y,CAL,USGS,USGS,BDB-000032479_1,46.21235518,-119.7789226,USGS_191,"JOINT DRAIN 528 AT WAMBA ROAD AT PROSSER, WA",2000,9,9/27/2000 0:00,271,targeted riffle,single,,,,UpColYak_101864,24.26,annual,24.27,24.26,19.59,UpColYak,Columbia Plateau,CP,10e,Pleistocene Lake Basins,1.265314,14.2209,260.068449,286.82729,0.160984302,0.145967227,10.22140645,7.043857984,60.25008604,71.58407696,0,0,3.764656182,3.345207125,11.29626365,11.09476758,219.5585896,220.6490713
Y,CAL,USGS,USGS,BDB-000032480_1,46.53596038,-120.4733968,USGS_168,"AHTANUM CREEK AT UNION GAP, WA",2000,9,9/27/2000 0:00,271,targeted riffle,multi,,,USGS_168,UpColYak_106149,24.08,annual,24.08,24.08,18.74,UpColYak,Columbia Plateau,CP,10e,Pleistocene Lake Basins,0.375027,430.0803,364.458669,1037.170734,0.336590171,0.491047031,9.168510907,2.693217987,24.56528612,15.97076174,0,30.39318471,2.50366457,1.550731261,10.29351376,6.906453476,221.2283476,628.0192012
Y,CAL,USGS,USGS,BDB-000032481_1,46.54818162,-120.5924281,USGS_164,AHTANUM CREEK AT 62ND AVENUE,2000,9,9/27/2000 0:00,271,targeted riffle,single,,,,UpColYak_106052,25.41,annual,25.42,25.41,18.63,UpColYak,Columbia Plateau,CP,10e,Pleistocene Lake Basins,0.961538,359.5653,473.532079,1157.347772,0.258575777,0.609338017,0.386063121,2.115554532,55.19737477,7.390674239,0,36.35214522,1.02847156,1.413515746,9.7248362,6.326040001,263.3169601,699.9229807
Y,VAL,USGS,USGS,BDB-000032482_1,46.23374452,-119.678086,USGS_196,"SNIPES CREEK AT MOUTH AT WHITSTRAN, WA",2000,9,9/28/2000 0:00,272,targeted riffle,single,,,,UpColYak_101590,26.16,annual,26.16,26.16,20.63,UpColYak,Columbia Plateau,CP,10e,Pleistocene Lake Basins,1.910228,89.1612,226.9656094,573.8461006,0.240495318,0.265269765,4.313205043,0.425970041,42.66755143,53.66213106,0,0,2.744352391,1.400401696,11.49656326,9.879095615,217.7053018,251.8753412
Y,NOT_CALVAL,USGS,USGS,BDB-000032483_1,46.25466401,-119.6747111,USGS_197,"SNIPES CREEK AT MCCREADIE ROAD NR WHITSRAN, WA",2000,9,9/28/2000 0:00,272,targeted riffle,multi,,,USGS_197,UpColYak_101588,25.91,annual,25.91,25.91,20.46,UpColYak,Columbia Plateau,CP,10e,Pleistocene Lake Basins,1.910228,89.1612,226.9656094,573.8461006,0.240495318,0.265269765,4.313205043,0.425970041,42.66755143,53.66213106,0,0,2.744352391,1.400401696,11.49656326,9.879095615,217.7053018,251.8753412
Y,CAL,USGS,USGS,BDB-000032484_1,46.23318896,-119.6783638,USGS_195,"SPRING CREEK AT MOUTH AT WHITSTRAN, WA",2000,9,9/28/2000 0:00,272,targeted riffle,single,,,,UpColYak_101590,26.16,annual,26.16,26.16,20.63,UpColYak,Columbia Plateau,CP,10e,Pleistocene Lake Basins,1.910228,89.1612,226.9656094,573.8461006,0.240495318,0.265269765,4.313205043,0.425970041,42.66755143,53.66213106,0,0,2.744352391,1.400401696,11.49656326,9.879095615,217.7053018,251.8753412
Y,CAL,USGS,USGS,BDB-000032486_1,46.27263326,-119.7391996,USGS_193,"SPRING CREEK AT HANKS RD NEAR PROSSER, WA",2000,9,9/28/2000 0:00,272,targeted riffle,single,,,,UpColYak_101800,24.97,annual,24.97,24.97,19.73,UpColYak,Columbia Plateau,CP,10g,Yakima Folds,1.268678,74.943,315.1538928,589.7026478,0.154390076,0.313531943,0.910010111,0.278611745,91.60768453,30.6436892,0,0,1.631844362,1.251081351,10.93204163,9.729452625,224.6667009,248.4450786
Y,CAL,USGS,USGS,BDB-000032487_1,46.24985094,-120.3789449,USGS_176,"SATUS CREEK BELOW DRY CREEK NEAR TOPPENISH, WA",2000,9,9/29/2000 0:00,273,targeted riffle,single,,,,UpColYak_101899,24.58,annual,24.58,24.58,18.98,UpColYak,Columbia Plateau,CP,10g,Yakima Folds,0.392268,1136.1681,382.8622265,860.7612818,0.734776921,0.780033088,0,2.22186312,0,0.077312503,1.146214602,21.76853936,1.136816301,1.023232101,10.38883583,8.060516399,238.380349,525.6184604
Y,NOT_CALVAL,USGS,USGS,BDB-000033291_1,44.95567759,-122.6284199,USGS_059,"LITTLE ABIQUA CREEK NEAR SCOTTS MILLS, OR",1993,8,8/9/1993 0:00,221,targeted riffle,multi,,,USGS_059,ORCoast_211234,17.02,annual,18.97,17.02,14.09,ORCoast,Cascades,CA,4a,Western Cascades Lowlands and Valleys,3.246323,25.3368,332.1238921,560.9023064,0.629072523,0.8250277,0,0.021312873,3.516998828,0.106564365,39.97655334,62.9759875,0.176000896,1.149946348,10.38373944,9.39342816,1603.034691,1958.586497
Y,NOT_CALVAL,USGS,USGS,BDB-000033294_1,45.64344428,-123.3703935,USGS_004,"GALES CREEK NEAR GLENWOOD, OR",1993,8,8/19/1993 0:00,231,targeted riffle,multi,,,USGS_004,ORCoast_218322,13.78,annual,15.73,13.78,12.46,ORCoast,Coast Range,CR,1d,Volcanics,3.140169,19.1952,478.1756616,604.6759162,0.882579671,0.884592627,0.097143967,1.78E-01,0,0,87.35185545,72.53375844,1.682703173,1.188021117,9.305092036,8.897119538,1939.031406,2106.389087
Y,NOT_CALVAL,USGS,USGS,BDB-000033295_1,45.40345202,-122.7548185,USGS_051,"FANNO CREEK AT DURHAM, OR",1993,8,8/17/1993 0:00,229,targeted riffle,multi,,,USGS_051,ORCoast_216235,21.22,annual,23.17,21.22,19.46,ORCoast,Willamette Valley,WV,3c,Prairie Terraces,2.08E-01,82.1421,55.86962647,100.0494265,0.48842892,0.402217598,81.02454642,80.21453067,0,0.406490703,4.866595518,8.178023206,9.305479718,10.69095432,11.97019245,11.68374398,1044.815897,1050.134836
Y,CAL,USGS,USGS,BDB-000033298_1,45.0628983,-122.8303702,USGS_044,"PUDDING RIVER NEAR MOUNT ANGEL, OREG.",1994,7,7/29/1994 0:00,210,targeted riffle,single,,,,ORCoast_212523,26.34,annual,25.85,26.34,19.97,ORCoast,Willamette Valley,WV,3c,Prairie Terraces,0.024634,524.1159,48.91321713,378.946528,0.214372387,0.289750132,4.008964143,2.490765878,76.41932271,38.14160189,2.888446215,33.42674779,1.211735675,1.832536794,11.79605638,10.27405916,1096.651691,1600.345552
Y,NOT_CALVAL,USGS,USGS,BDB-000033299_1,45.10039816,-122.8217596,USGS_045,"ZOLLNER CREEK NEAR MT ANGEL, OR",1994,7,7/28/1994 0:00,209,targeted riffle,multi,,,USGS_045,ORCoast_213002,22.52,annual,22.03,22.52,18.03,ORCoast,Willamette Valley,WV,3c,Prairie Terraces,0.23589,40.6125,50.99809662,72.22409884,0.185364113,0.157469729,6.473429952,5.017174515,82.36714976,87.83379501,2.608695652,1.737396122,2.675341792,1.912082996,11.83824453,11.75655077,1070.812228,1114.258815
Y,CAL,USGS,USGS,BDB-000033300_1,44.21845644,-123.2873177,USGS_006,"BEAR C AT TERRITORIAL HWY NR JUNCTION CITY, OR",1994,7,7/26/1994 0:00,207,targeted riffle,single,,,,ORCoast_204846,24.48,annual,23.99,24.48,18.98,ORCoast,Willamette Valley,WV,3c,Prairie Terraces,0.092301,75.3525,102.5345067,188.0015213,0.167992154,0.375040707,4.053121766,1.900268737,88.39254915,29.69363989,0,34.28247238,2.069561041,2.447017028,11.41449358,11.36553587,1103.632383,1236.177815
Y,CAL,USGS,USGS,BDB-000033301_1,44.24151284,-123.0978674,USGS_019,"MUDDY C AT WEATHERFORD LN NR HARRISBURG, OR",1994,7,7/27/1994 0:00,208,targeted riffle,single,,,,ORCoast_204906,24.19,annual,23.7,24.19,19.02,ORCoast,Willamette Valley,WV,3c,Prairie Terraces,0.080756,78.8625,103.3486442,253.9795238,0.187588071,0.318331098,2.886721083,6.043937233,89.05036831,44.57061341,0.716703165,31.61883024,0.901415934,1.561445852,11.38459127,11.11997678,1106.552488,1320.146364
Y,CAL,USGS,USGS,BDB-000033302_1,44.24734527,-123.2870402,USGS_007,FERGUSON C AT TERRITORIAL HWY NR JUNCTION CITY OR,1994,7,7/26/1994 0:00,207,targeted riffle,single,,,,ORCoast_205200,23.55,annual,23.06,23.55,18.11,ORCoast,Willamette Valley,WV,3c,Prairie Terraces,0.374449,64.3671,108.3852256,204.5873841,0.220719603,0.39023261,2.32998518,1.110194494,76.74131401,31.43500329,7.928536144,39.09310813,1.440022896,1.363460089,11.40467259,11.29555106,1112.742706,1267.840006
Y,CAL,USGS,USGS,BDB-000033303_1,44.26345577,-123.3914878,USGS_002,"FERGUSON C AT FERGUSON RD NR JUNCTION CITY, OR",1994,7,7/25/1994 0:00,206,targeted riffle,single,,,,ORCoast_205474,21.83,annual,21.34,21.83,16.58,ORCoast,Willamette Valley,WV,3d,Valley Foothills,2.45131,16.6932,293.3350464,293.3350464,0.748020761,0.748020761,0.070088419,0.070088419,4.19452232,4.19452232,67.35497089,67.35497089,1.245394535,1.245394535,11.18645112,11.18645112,1396.023344,1396.023344
Y,CAL,USGS,USGS,BDB-000033304_1,44.35178991,-123.1425928,USGS_016,"MUDDY C AT NIXON RD NR HALSEY, OR",1994,7,7/26/1994 0:00,207,targeted riffle,single,,,,ORCoast_204929,25.48,annual,24.99,25.48,20.64,ORCoast,Willamette Valley,WV,3c,Prairie Terraces,0.06628,119.4147,93.19138025,201.881498,0.177096809,0.250534604,3.280036171,5.398581582,90.87919767,60.61288937,0.189074767,20.91601788,1.272255713,1.470129093,11.40410244,11.21227964,1095.561297,1248.068888
Y,CAL,USGS,USGS,BDB-000033305_1,44.3520677,-123.1412039,USGS_017,"LITTLE MUDDY C AT NIXON RD NR HALSEY, OR",1994,7,7/26/1994 0:00,207,targeted riffle,single,,,,ORCoast_205693,27.57,annual,27.08,27.57,20.37,ORCoast,Willamette Valley,WV,3c,Prairie Terraces,0.094699,157.1175,93.53848398,225.823519,0.184667486,0.254417424,3.469419038,1.563224975,92.52465382,61.6628956,0,20.33624517,1.035524823,1.056437442,11.41537707,11.08390712,1092.891501,1322.131785
Y,CAL,USGS,USGS,BDB-000033307_1,44.52706653,-123.2037084,USGS_014,"MUDDY CREEK NEAR PEORIA, OR",1994,7,7/27/1994 0:00,208,targeted riffle,single,,,,ORCoast_206633,25.61,annual,25.12,25.61,21.17,ORCoast,Willamette Valley,WV,3c,Prairie Terraces,0.042421,380.808,75.35707383,178.6970071,0.190419811,0.213074607,3.751427651,3.73E+00,88.19808475,68.77883343,1.074764987,15.04797693,1.496932539,1.364442084,11.49764276,11.2281413,1061.552584,1229.685993
Y,CAL,USGS,USGS,BDB-000033308_1,44.6670649,-123.2778773,USGS_009,"SOAP C NR CORVALLIS, OR",1994,7,7/27/1994 0:00,208,targeted riffle,single,,,,ORCoast_208737,21.57,annual,21.08,21.57,17.09,ORCoast,Willamette Valley,WV,3d,Valley Foothills,0.7185,26.5275,195.6906743,271.5640648,0.527894107,0.80066556,0,0,11.43322476,1.849024597,57.62214984,70.09329941,1.945173926,2.615290552,11.05938763,10.86833355,1388.267232,1557.841176
Y,CAL,USGS,USGS,BDB-000033309_1,44.88928828,-122.7992563,USGS_049,"PUDDING R TRIB. AT CASCADE HWY NR SILVERTON, OR",1994,7,7/29/1994 0:00,210,targeted riffle,single,,,,ORCoast_210741,23.78,annual,23.29,23.78,17.23,ORCoast,Willamette Valley,WV,3d,Valley Foothills,0.962244,14.7312,200.534376,238.0428977,0.203582256,0.194299636,5.017465862,2.810361681,81.64496666,84.78128055,4.731660845,3.3785435,1.406313473,1.069556672,11.32687237,11.08602653,1280.928713,1370.381837
Y,CAL,USGS,USGS,BDB-000033310_1,44.97039864,-122.8500916,USGS_042,"PUDDING R AT KAUFMAN RD, OREGON",1994,7,7/28/1994 0:00,209,targeted riffle,single,,,,ORCoast_211560,25.43,annual,24.94,25.43,18.81,ORCoast,Willamette Valley,WV,3c,Prairie Terraces,0.107741,66.0087,61.85432123,164.0009716,0.196512799,0.18358444,3.331675783,2.630107849,83.68970661,83.75168728,1.541521631,6.904544401,2.058290932,1.40516314,11.68431126,11.39035303,1113.737154,1231.011489
Y,CAL,USGS,USGS,BDB-000033312_1,45.19373191,-122.7225919,USGS_054,"BEAR C AT BARLOW-MONITOR RD, OREGON",1994,7,7/27/1994 0:00,208,targeted riffle,single,,,,ORCoast_213844,23.08,annual,22.59,23.08,18.81,ORCoast,Willamette Valley,WV,3c,Prairie Terraces,0.135212,54.6093,46.4289382,84.88756662,0.216126376,0.176021085,4.719101124,8.69027803,74.38202247,78.9475419,5.786516854,2.302355093,1.778245712,2.565805875,11.89925936,11.84358444,1035.410284,1085.060713
Y,NOT_CALVAL,USGS,USGS,BDB-000033314_1,44.95567759,-122.6284199,USGS_059,"LITTLE ABIQUA CREEK NEAR SCOTTS MILLS, OR",1994,8,8/8/1994 0:00,220,targeted riffle,multi,,,USGS_059,ORCoast_211234,19.46,annual,18.97,19.46,14.09,ORCoast,Cascades,CA,4a,Western Cascades Lowlands and Valleys,3.246323,25.3368,332.1238921,560.9023064,0.629072523,0.8250277,0,0.021312873,3.516998828,0.106564365,39.97655334,62.9759875,0.176000896,1.149946348,10.38373944,9.39342816,1603.034691,1958.586497
Y,CAL,USGS,USGS,BDB-000033316_1,45.64344428,-123.3703935,USGS_004,"GALES CREEK NEAR GLENWOOD, OR",1994,8,8/2/1994 0:00,214,targeted riffle,multi,,,USGS_004,ORCoast_218322,16.22,annual,15.73,16.22,12.46,ORCoast,Coast Range,CR,1d,Volcanics,3.140169,19.1952,478.1756616,604.6759162,0.882579671,0.884592627,0.097143967,0.178169542,0,0,87.35185545,72.53375844,1.682703173,1.188021117,9.305092036,8.897119538,1939.031406,2106.389087
Y,NOT_CALVAL,USGS,USGS,BDB-000033317_1,45.40345202,-122.7548185,USGS_051,"FANNO CREEK AT DURHAM, OR",1994,8,8/5/1994 0:00,217,targeted riffle,multi,,,USGS_051,ORCoast_216235,23.66,annual,23.17,23.66,19.46,ORCoast,Willamette Valley,WV,3c,Prairie Terraces,0.20811,82.1421,55.86962647,100.0494265,0.48842892,0.402217598,81.02454642,80.21453067,0,0.406490703,4.866595518,8.178023206,9.305479718,10.69095432,11.97019245,11.68374398,1044.815897,1050.134836
Y,CAL,USGS,USGS,BDB-000033318_1,45.216231,-122.8064835,USGS_048,"SENECAL C AT DONALD RD, OREGON",1994,8,8/1/1994 0:00,213,targeted riffle,single,,,,ORCoast_214245,22.32,annual,21.83,22.32,17.29,ORCoast,Willamette Valley,WV,3c,Prairie Terraces,0.167303,33.6123,52.39515539,55.05904597,0.24137625,0.176108673,10.83180987,16.87417999,61.60877514,70.85977455,7.861060329,1.502128685,3.464132819,3.59967159,11.89883714,11.82777,1036.329902,1049.78222
Y,CAL,USGS,USGS,BDB-000033319_1,45.23039868,-122.700092,USGS_055,"GRIBBLE C NR CANBY, OR",1994,8,8/1/1994 0:00,213,targeted riffle,single,,,,ORCoast_213951,21.82,annual,21.33,21.82,17.58,ORCoast,Willamette Valley,WV,3c,Prairie Terraces,0.331531,23.6286,54.06573132,66.96896054,0.184530319,0.181192197,2.993909239,3.504227927,88.96800206,87.72758437,0.609076092,1.550239963,1.931987223,2.135016066,11.90751731,11.89513442,1042.933462,1063.599012
Y,VAL,USGS,USGS,BDB-000033320_1,45.53456411,-122.3781466,USGS_070,"BEAVER CREEK NEAR TROUTDALE, OR",1994,8,8/8/1994 0:00,220,targeted riffle,single,,,,ORCoast_216925,22.89,annual,22.4,22.89,17.92,ORCoast,Willamette Valley,WV,3a,Portland/Vancouver Basin,1.584928,33.6645,78.40268263,135.5367983,0.349337735,0.192699153,77.51497006,48.58976073,6.167664671,30.62157466,4.326347305,6.191685604,9.671745112,6.739586457,11.81233764,11.53860359,1243.07504,1377.386693
Y,NOT_CALVAL,USGS,USGS,BDB-000033321_1,45.40345202,-122.7548185,USGS_051,"FANNO CREEK AT DURHAM, OR",1995,7,7/31/1995 0:00,212,targeted riffle,multi,,USGS_051__1995,USGS_051,ORCoast_216235,23.17,annual,23.17,23.17,19.46,ORCoast,Willamette Valley,WV,3c,Prairie Terraces,0.20811,82.1421,55.86962647,100.0494265,0.48842892,0.402217598,81.02454642,80.21453067,0,0.406490703,4.866595518,8.178023206,9.305479718,10.69095432,11.97019245,11.68374398,1044.815897,1050.134836
Y,NOT_CALVAL,USGS,USGS,BDB-000033322_1,44.95567759,-122.6284199,USGS_059,"LITTLE ABIQUA CREEK NEAR SCOTTS MILLS, OR",1995,8,8/2/1995 0:00,214,targeted riffle,multi,,USGS_059__1995,USGS_059,ORCoast_211234,18.97,annual,18.97,18.97,14.09,ORCoast,Cascades,CA,4a,Western Cascades Lowlands and Valleys,3.246323,25.3368,332.1238921,560.9023064,0.629072523,0.8250277,0,0.021312873,3.516998828,0.106564365,39.97655334,62.9759875,0.176000896,1.149946348,10.38373944,9.39342816,1603.034691,1958.586497
Y,NOT_CALVAL,USGS,USGS,BDB-000033323_1,44.95567759,-122.6284199,USGS_059,"LITTLE ABIQUA CREEK NEAR SCOTTS MILLS, OR",1995,8,8/3/1995 0:00,215,targeted riffle,multi,,USGS_059__1995,USGS_059,ORCoast_211234,18.97,annual,18.97,18.97,14.09,ORCoast,Cascades,CA,4a,Western Cascades Lowlands and Valleys,3.246323,25.3368,332.1238921,560.9023064,0.629072523,0.8250277,0,0.021312873,3.516998828,0.106564365,39.97655334,62.9759875,0.176000896,1.149946348,10.38373944,9.39342816,1603.034691,1958.586497
Y,CAL,USGS,USGS,BDB-000033324_1,44.95567759,-122.6284199,USGS_059,"LITTLE ABIQUA CREEK NEAR SCOTTS MILLS, OR",1995,8,8/7/1995 0:00,219,targeted riffle,multi,,USGS_059__1995,USGS_059,ORCoast_211234,18.97,annual,18.97,18.97,14.09,ORCoast,Cascades,CA,4a,Western Cascades Lowlands and Valleys,3.246323,25.3368,332.1238921,560.9023064,0.629072523,0.8250277,0,0.021312873,3.516998828,0.106564365,39.97655334,62.9759875,0.176000896,1.149946348,10.38373944,9.39342816,1603.034691,1958.586497
Y,NOT_CALVAL,USGS,USGS,BDB-000033325_1,45.10039816,-122.8217596,USGS_045,"ZOLLNER CREEK NEAR MT ANGEL, OR",1995,8,8/15/1995 0:00,227,targeted riffle,multi,,,USGS_045,ORCoast_213002,22.03,annual,22.03,22.03,18.03,ORCoast,Willamette Valley,WV,3c,Prairie Terraces,0.23589,40.6125,50.99809662,72.22409884,0.185364113,0.157469729,6.473429952,5.017174515,82.36714976,87.83379501,2.608695652,1.737396122,2.675341792,1.912082996,11.83824453,11.75655077,1070.812228,1114.258815
Y,NOT_CALVAL,USGS,USGS,BDB-000033458_1,45.64344428,-123.3703935,USGS_004,"GALES CREEK NEAR GLENWOOD, OR",1995,8,8/11/1995 0:00,223,targeted riffle,multi,,,USGS_004,ORCoast_218322,15.73,annual,15.73,15.73,12.46,ORCoast,Coast Range,CR,1d,Volcanics,3.140169,19.1952,478.1756616,604.6759162,0.882579671,0.884592627,0.097143967,0.178169542,0,0,87.35185545,72.53375844,1.682703173,1.188021117,9.305092036,8.897119538,1939.031406,2106.389087
Y,NOT_CALVAL,USGS,USGS,BDB-000033459_1,45.40345202,-122.7548185,USGS_051,"FANNO CREEK AT DURHAM, OR",1995,8,8/1/1995 0:00,213,targeted riffle,multi,USGS_051__1995-08-01,USGS_051__1995,USGS_051,ORCoast_216235,23.17,annual,23.17,23.17,19.46,ORCoast,Willamette Valley,WV,3c,Prairie Terraces,0.20811,82.1421,55.86962647,100.0494265,0.48842892,0.402217598,81.02454642,80.21453067,0,0.406490703,4.866595518,8.178023206,9.305479718,10.69095432,11.97019245,11.68374398,1044.815897,1050.134836
Y,NOT_CALVAL,USGS,USGS,BDB-000033460_1,45.40345202,-122.7548185,USGS_051,"FANNO CREEK AT DURHAM, OR",1995,8,8/1/1995 0:00,213,targeted riffle,multi,USGS_051__1995-08-01,USGS_051__1995,USGS_051,ORCoast_216235,23.17,annual,23.17,23.17,19.46,ORCoast,Willamette Valley,WV,3c,Prairie Terraces,0.20811,82.1421,55.86962647,100.0494265,0.48842892,0.402217598,81.02454642,80.21453067,0,0.406490703,4.866595518,8.178023206,9.305479718,10.69095432,11.97019245,11.68374398,1044.815897,1050.134836
Y,NOT_CALVAL,USGS,USGS,BDB-000037750_1,47.51425666,-123.3298868,USGS_077,"NF SKOKOMISH R BL STAIRCASE RPDS NR HOODSPORT, WA",2003,7,7/28/2003 0:00,209,targeted riffle,multi,,,USGS_077,WACoast_115932,12.52,annual,12.22,12.52,11.34,WACoast,Coast Range,CR,1d,Volcanics,0.564903,147.429,434.8711087,988.3068988,0.894492169,0.875599809,0,0.073255601,0,0.01098834,86.95652174,81.62322203,1.772557044,0.141584547,9.560851338,6.761849679,3432.89851,3786.136963
Y,NOT_CALVAL,USGS,USGS,BDB-000037872_1,47.69565378,-122.2762368,USGS_119,"THORNTON CREEK NEAR SEATTLE, WA",2003,7,7/24/2003 0:00,205,targeted riffle,multi,,,USGS_119,WACoast_118080,19.14,annual,18.84,19.14,15.3,WACoast,Puget Lowland,PL,2f,Central Puget Lowland,0.591904,31.0167,59.5226749,97.43784232,0.45346892,0.449489527,85.43209877,8.88E+01,0,0,5.569272977,3.302092099,13.62598647,13.17433576,11.25223779,11.01314179,885.6112661,916.4466922
Y,CAL,USGS,USGS,BDB-000041234_1,47.94456667,-119.5742306,USGS_200,"EAST FOSTER CREEK AT BELL BUTTE ROAD NR LEAHY, WA",2003,9,9/3/2003 0:00,246,targeted riffle,single,,,,UpColYak_129983,22.48,annual,21.5,22.48,16.83,UpColYak,Columbia Plateau,CP,10d,Okanogan Drift Hills,1.072754,405.5949,543.5845124,674.0189585,0.719850578,0.52401922,2.58953168,0.27626087,5.454545455,19.58523147,0,0.003772237,0.270147204,0.525696073,9.435214211,8.718097818,291.7740994,285.3352715
Y,NOT_CALVAL,USGS,USGS,BDB-000041318_1,47.31232289,-122.165396,USGS_134,"BIG SOOS CREEK ABOVE HATCHERY NEAR AUBURN, WA",2007,8,8/30/2007 0:00,242,targeted riffle,multi,,,USGS_134,WACoast_111631,19.27,annual,18.91,19.27,14.45,WACoast,Puget Lowland,PL,2e,Eastern Puget Uplands,0.405693,211.0851,98.27139005,166.3079809,0.680115869,0.564141703,33.26024995,29.16785694,0.526200395,2.419213862,30.38807279,33.24990726,5.349597717,5.810727014,10.97646086,10.51024862,1085.098177,1275.307763
Y,NOT_CALVAL,USGS,USGS,BDB-000041375_1,47.51425666,-123.3298868,USGS_077,"NF SKOKOMISH R BL STAIRCASE RPDS NR HOODSPORT, WA",2004,8,8/24/2004 0:00,237,targeted riffle,multi,,,USGS_077,WACoast_115932,12.69,annual,12.22,12.69,11.34,WACoast,Coast Range,CR,1d,Volcanics,0.564903,147.429,434.8711087,988.3068988,0.894492169,0.875599809,0,0.073255601,0,0.01098834,86.95652174,81.62322203,1.772557044,0.141584547,9.560851338,6.761849679,3432.89851,3786.136963
Y,CAL,USGS,USGS,BDB-000041606_1,46.74611111,-120.6052778,USGS_163,"WENAS CREEK AT FLETCHER LANE NEAR SELAH, WA",2003,8,8/18/2003 0:00,230,targeted riffle,single,,,,UpColYak_110302,22.2,annual,21.22,22.2,16.26,UpColYak,Columbia Plateau,CP,10g,Yakima Folds,0.958906,347.9688,536.9552484,1006.327011,0.321057031,0.698955363,0.248397436,0.493751164,35.56089744,3.620755654,0,28.71929897,1.842784005,1.237959006,9.090138024,6.917321369,296.1948425,717.940633
Y,NOT_CALVAL,USGS,USGS,BDB-000041616_1,47.30265108,-118.3691441,USGS_212,"CRAB CREEK AT ROCKY FORD ROAD NEAR RITZVILLE, WA",2003,9,9/10/2003 0:00,253,targeted riffle,multi,,,USGS_212,UpColYak_117079,25.38,annual,24.4,25.38,18.27,UpColYak,Columbia Plateau,CP,10a,Channeled Scablands,0.298906,1141.47,528.0031961,701.2069665,0.741676565,0.258111973,1.694915254,0.327288496,3.87409201,67.96396752,0,2.149018371,0.958878549,0.920562656,9.170906122,8.204170464,297.9001255,359.4259482
Y,NOT_CALVAL,USGS,USGS,BDB-000041850_1,45.68233568,-123.0695531,USGS_024,"EAST FORK DAIRY CREEK NEAR MEACHAM CORNER, OR",2007,9,9/11/2007 0:00,254,targeted riffle,multi,,USGS_024__2007,USGS_024,ORCoast_218403,20.34,annual,19.64,20.34,15.87,ORCoast,Willamette Valley,WV,3d,Valley Foothills,0.408977,87.6312,111.327,401.1261466,0.279231235,0.812418328,0,0.166379098,38.66666667,0.644975762,29.33333333,56.04202613,1.343561225,0.69451512,10.86320631,9.598376364,1307.077335,1639.141
Y,NOT_CALVAL,USGS,USGS,BDB-000041852_1,45.40345202,-122.7548185,USGS_051,"FANNO CREEK AT DURHAM, OR",2007,8,8/15/2007 0:00,227,targeted riffle,multi,,,USGS_051,ORCoast_216235,23.88,annual,23.17,23.88,19.46,ORCoast,Willamette Valley,WV,3c,Prairie Terraces,0.20811,82.1421,55.86962647,100.0494265,0.48842892,0.402217598,81.02454642,80.21453067,0,0.406490703,4.866595518,8.178023206,9.305479718,10.69095432,11.97019245,11.68374398,1044.815897,1050.134836
Y,CAL,USGS,USGS,BDB-000041933_1,47.35465278,-120.1041694,USGS_184,"ROCK ISLAND CREEK NEAR ROCK ISLAND, WA",2003,9,9/2/2003 0:00,245,targeted riffle,single,,,,UpColYak_119524,22.37,annual,21.4,22.37,14.55,UpColYak,Columbia Plateau,CP,10a,Channeled Scablands,3.307602,222.1641,379.6315913,915.4516124,0.690736883,0.442983755,1.881037112,0.277497579,8.032536858,30.00336238,0.355871886,5.184546018,1.382647384,0.557147486,10.36271551,7.65066643,221.622134,301.8315427
Y,NOT_CALVAL,USGS,USGS,BDB-000041936_1,46.53596038,-120.4733968,USGS_168,"AHTANUM CREEK AT UNION GAP, WA",2003,8,8/20/2003 0:00,232,targeted riffle,multi,,,USGS_168,UpColYak_106149,25.05,annual,24.08,25.05,18.74,UpColYak,Columbia Plateau,CP,10e,Pleistocene Lake Basins,0.375027,430.0803,364.458669,1037.170734,0.336590171,0.491047031,9.168510907,2.693217987,24.56528612,15.97076174,0,30.39318471,2.50366457,1.550731261,10.29351376,6.906453476,221.2283476,628.0192012
Y,CAL,USGS,USGS,BDB-000041944_1,46.62951111,-120.6622583,USGS_162,"COWICHE CREEK AT WEIKEL, WA",2003,8,8/20/2003 0:00,232,targeted riffle,single,,,,UpColYak_107809,21.71,annual,20.74,21.71,15.69,UpColYak,Columbia Plateau,CP,10g,Yakima Folds,1.102337,309.7989,512.0680308,948.5844538,0.272608472,0.456662279,1.590487371,1.487126003,45.21149695,18.76178385,1.776044231,17.24008704,2.134685351,1.328076925,9.345244363,7.304374383,304.1027727,572.603116
Y,CAL,USGS,USGS,BDB-000041967_1,47.29470833,-120.1488278,USGS_181,"COLOCKUM CREEK NEAR ROCK ISLAND, WA",2003,9,9/4/2003 0:00,247,targeted riffle,single,,,,UpColYak_118168,21.05,annual,20.08,21.05,15.13,UpColYak,Columbia Plateau,CP,10g,Yakima Folds,4.201959,96.4503,484.0632284,1075.716944,0.833180916,0.806597972,0,1.185066298,0,0.225815783,2.864214993,32.02385063,0.872908194,1.213615184,9.661042285,6.873219455,326.7771167,541.6238424
Y,NOT_CALVAL,USGS,USGS,BDB-000042015_1,47.64064868,-122.7851527,USGS_083,"BIG BEEF CREEK NEAR SEABECK, WA",2007,8,8/23/2007 0:00,235,targeted riffle,multi,,,USGS_083,WACoast_117158,18.78,annual,18.42,18.78,14.03,WACoast,Puget Lowland,PL,2f,Central Puget Lowland,1.106009,34.9353,107.1182598,148.5340526,0.909251108,0.797634386,2.205292702,6.244686606,0,0,82.18390805,71.99938171,1.565447597,2.225750136,10.50659699,10.14439427,1273.050944,1440.154179
Y,NOT_CALVAL,USGS,USGS,BDB-000042411_1,45.68233568,-123.0695531,USGS_024,"EAST FORK DAIRY CREEK NEAR MEACHAM CORNER, OR",2007,8,8/14/2007 0:00,226,targeted riffle,multi,,USGS_024__2007,USGS_024,ORCoast_218403,20.34,annual,19.64,20.34,15.87,ORCoast,Willamette Valley,WV,3d,Valley Foothills,0.408977,87.6312,111.327,401.1261466,0.279231235,0.812418328,0,0.166379098,38.66666667,0.644975762,29.33333333,56.04202613,1.343561225,0.69451512,10.86320631,9.598376364,1307.077335,1639.141
Y,NOT_CALVAL,USGS,USGS,BDB-000042434_1,45.40345202,-122.7548185,USGS_051,"FANNO CREEK AT DURHAM, OR",2003,9,9/15/2003 0:00,258,targeted riffle,multi,,,USGS_051,ORCoast_216235,24.08,annual,23.17,24.08,19.46,ORCoast,Willamette Valley,WV,3c,Prairie Terraces,0.20811,82.1421,55.86962647,100.0494265,0.48842892,0.402217598,81.02454642,80.21453067,0,0.406490703,4.866595518,8.178023206,9.305479718,10.69095432,11.97019245,11.68374398,1044.815897,1050.134836
Y,NOT_CALVAL,USGS,USGS,BDB-000042436_1,45.10039816,-122.8217596,USGS_045,"ZOLLNER CREEK NEAR MT ANGEL, OR",2003,9,9/16/2003 0:00,259,targeted riffle,multi,,,USGS_045,ORCoast_213002,22.94,annual,22.03,22.94,18.03,ORCoast,Willamette Valley,WV,3c,Prairie Terraces,0.23589,40.6125,50.99809662,72.22409884,0.185364113,0.157469729,6.473429952,5.017174515,82.36714976,87.83379501,2.608695652,1.737396122,2.675341792,1.912082996,11.83824453,11.75655077,1070.812228,1114.258815
Y,NOT_CALVAL,USGS,USGS,BDB-000042438_1,44.95567759,-122.6284199,USGS_059,"LITTLE ABIQUA CREEK NEAR SCOTTS MILLS, OR",2003,9,9/17/2003 0:00,260,targeted riffle,multi,,,USGS_059,ORCoast_211234,19.88,annual,18.97,19.88,14.09,ORCoast,Cascades,CA,4a,Western Cascades Lowlands and Valleys,3.246323,25.3368,332.1238921,560.9023064,0.629072523,0.8250277,0,0.021312873,3.516998828,0.106564365,39.97655334,62.9759875,0.176000896,1.149946348,10.38373944,9.39342816,1603.034691,1958.586497
Y,NOT_CALVAL,USGS,USGS,BDB-000042440_1,45.68233568,-123.0695531,USGS_024,"EAST FORK DAIRY CREEK NEAR MEACHAM CORNER, OR",2003,9,9/18/2003 0:00,261,targeted riffle,multi,,,USGS_024,ORCoast_218403,20.55,annual,19.64,20.55,15.87,ORCoast,Willamette Valley,WV,3d,Valley Foothills,0.408977,87.6312,111.327,401.1261466,0.279231235,0.812418328,0,0.166379098,38.66666667,0.644975762,29.33333333,56.04202613,1.343561225,0.69451512,10.86320631,9.598376364,1307.077335,1639.141
Y,CAL,USGS,USGS,BDB-000042673_1,46.28783056,-119.9823556,USGS_187,"BLACK CANYON CREEK AT WANETA RD NEAR SUNNYSIDE, WA",2003,8,8/26/2003 0:00,238,targeted riffle,single,,,,UpColYak_102167,23.32,annual,22.35,23.32,18.46,UpColYak,Columbia Plateau,CP,10e,Pleistocene Lake Basins,0.285955,92.6703,222.0407714,516.180204,0.141737176,0.308296336,8.304821151,1.280021755,82.76827372,31.0759758,0,0,3.238447215,1.509746093,11.54092409,10.03498659,177.3190252,230.7142994
Y,CAL,USGS,USGS,BDB-000042865_1,46.93041061,-119.8997709,USGS_188,"SAND HOLLOW CREEK AT S RD SW NEAR VANTAGE, WA",2003,8,8/15/2003 0:00,227,targeted riffle,multi,,,USGS_188,UpColYak_111948,22.86,annual,21.88,22.86,16.81,UpColYak,Columbia Plateau,CP,10g,Yakima Folds,1.076972,124.6041,392.3775959,385.1381394,0.256653388,0.180779977,1.611009653,1.423628918,74.52713279,84.11545045,0,0,0.943472405,0.986296995,10.38955338,10.37737987,197.7731911,193.3983155
Y,NOT_CALVAL,USGS,USGS,BDB-000042866_1,46.94627921,-120.4502527,USGS_172,"PARK CREEK AT S. FERGUSON ROAD NR ELLENSBURG, WA",2003,8,8/13/2003 0:00,225,targeted riffle,multi,,,USGS_172,UpColYak_113099,21.65,annual,20.68,21.65,16.36,UpColYak,Columbia Plateau,CP,10e,Pleistocene Lake Basins,0.659633,175.7043,520.4050538,776.1809067,0.171205959,0.49983846,4.178166936,0.776531935,72.40887028,13.07093793,0,1.818908245,2.066343473,1.62153894,9.187629005,8.114139178,226.1463487,320.6295046
Y,CAL,USGS,USGS,BDB-000042877_1,46.95222084,-120.4526723,USGS_170,"CARIBOU CREEK AT S FERGUSON ROAD NR ELLENSBURG, WA",2003,8,8/14/2003 0:00,226,targeted riffle,multi,,,USGS_170,UpColYak_113561,21.82,annual,20.84,21.82,16.48,UpColYak,Columbia Plateau,CP,10e,Pleistocene Lake Basins,0.623175,101.7783,474.1884291,882.9029063,0.171859648,0.432014573,3.655133929,1.128334822,84.54241071,23.65523889,0,8.122065313,1.998127719,1.219728302,9.407279043,7.498257119,215.4749188,443.6651256
Y,CAL,USGS,USGS,BDB-000043226_1,46.25226389,-120.3984583,USGS_175,"SATUS CREEK ABOVE DRY CREEK NEAR TOPPENISH, WA",2003,8,8/22/2003 0:00,234,targeted riffle,single,,,,UpColYak_101807,25.89,annual,24.91,25.89,19.17,UpColYak,Columbia Plateau,CP,10g,Yakima Folds,0.313049,709.0668,328.8634636,888.9332002,0.821585233,0.804768975,0,2.364022684,0,0.123881135,8.577633008,24.91305474,0.34229898,1.069134766,10.66012606,7.923095548,230.7998926,527.7629956
Y,CAL,USGS,USGS,BDB-000043227_1,46.8573485,-120.4972898,USGS_165,"UMTANUM CREEK NEAR MOUTH AT UMTANUM, WA",2003,8,8/13/2003 0:00,225,targeted riffle,multi,,,USGS_165,UpColYak_111381,24.22,annual,23.25,24.22,17.12,UpColYak,Columbia Plateau,CP,10g,Yakima Folds,1.909401,134.442,617.3823463,878.5611559,0.859330586,0.859255668,0,0.006694337,0,0,3.593073593,14.37274066,0.428805575,0.795875589,8.76589263,7.601440476,336.4061906,545.3828509
Y,NOT_CALVAL,USGS,USGS,BDB-000043658_1,45.68233568,-123.0695531,USGS_024,"EAST FORK DAIRY CREEK NEAR MEACHAM CORNER, OR",2006,9,9/20/2006 0:00,263,targeted riffle,multi,,,USGS_024,ORCoast_218403,20.16,annual,19.64,20.16,15.87,ORCoast,Willamette Valley,WV,3d,Valley Foothills,0.408977,87.6312,111.327,401.1261466,0.279231235,0.812418328,0,0.166379098,38.66666667,0.644975762,29.33333333,56.04202613,1.343561225,0.69451512,10.86320631,9.598376364,1307.077335,1639.141
Y,NOT_CALVAL,USGS,USGS,BDB-000043659_1,45.40345202,-122.7548185,USGS_051,"FANNO CREEK AT DURHAM, OR",2006,9,9/21/2006 0:00,264,targeted riffle,multi,,,USGS_051,ORCoast_216235,23.69,annual,23.17,23.69,19.46,ORCoast,Willamette Valley,WV,3c,Prairie Terraces,0.20811,82.1421,55.86962647,100.0494265,0.48842892,0.402217598,81.02454642,80.21453067,0,0.406490703,4.866595518,8.178023206,9.305479718,10.69095432,11.97019245,11.68374398,1044.815897,1050.134836
Y,CAL,USGS,USGS,BDB-000043777_1,46.25735555,-119.7114207,USGS_194,"SPRING CREEK AT MCCREADIE RD NEAR PROSSER, WA",2003,8,8/21/2003 0:00,233,targeted riffle,multi,,,USGS_194,UpColYak_101736,26.15,annual,25.17,26.15,20.04,UpColYak,Columbia Plateau,CP,10e,Pleistocene Lake Basins,1.714326,88.5132,293.2416498,554.5964289,0.166623502,0.307990357,2.237040224,0.631431244,87.63174876,36.92601781,0,0,1.330565732,1.340635368,11.08543517,9.875356313,222.7940266,245.2932585
Y,CAL,USGS,USGS,BDB-000043784_1,46.87466111,-119.5975611,USGS_199,"RED ROCK COULEE AT E ROAD SW NEAR SMYRNA, WA",2003,8,8/27/2003 0:00,239,targeted riffle,single,,,,UpColYak_110797,27.42,annual,26.44,27.42,20.43,UpColYak,Columbia Plateau,CP,10e,Pleistocene Lake Basins,0.001,152.5752,242.0999288,325.9253171,0.865255728,0.181013919,9.608540925,2.590722477,0,81.91213251,0,0,2.006391917,1.119391395,11.17286505,10.7169981,187.1254977,187.8969562
Y,CAL,USGS,USGS,BDB-000043785_1,46.25368611,-120.4078639,USGS_174,"DRY CREEK NEAR TOPPENISH, WA",2003,8,8/22/2003 0:00,234,targeted riffle,single,,,,UpColYak_101935,22.84,annual,21.87,22.84,17.56,UpColYak,Columbia Plateau,CP,10g,Yakima Folds,0.725813,399.6819,328.81546,842.774046,0.865052333,0.788204551,0.105745506,2.118259546,0,0,0.669721537,17.62836896,0.806343969,0.932217086,10.58769319,8.150167729,234.2551279,541.2989262
Y,NOT_CALVAL,USGS,USGS,BDB-000043829_1,47.69565378,-122.2762368,USGS_119,"THORNTON CREEK NEAR SEATTLE, WA",2007,9,9/5/2007 0:00,248,targeted riffle,multi,,,USGS_119,WACoast_118080,19.21,annual,18.84,19.21,15.3,WACoast,Puget Lowland,PL,2f,Central Puget Lowland,0.591904,31.0167,59.5226749,97.43784232,0.45346892,0.449489527,85.43209877,88.77056553,0,0,5.569272977,3.302092099,13.62598647,13.17433576,11.25223779,11.01314179,885.6112661,916.4466922
Y,NOT_CALVAL,USGS,USGS,BDB-000043853_1,47.69565378,-122.2762368,USGS_119,"THORNTON CREEK NEAR SEATTLE, WA",2004,8,8/23/2004 0:00,236,targeted riffle,multi,,,USGS_119,WACoast_118080,19.31,annual,18.84,19.31,15.3,WACoast,Puget Lowland,PL,2f,Central Puget Lowland,0.591904,31.0167,59.5226749,97.43784232,0.45346892,0.449489527,85.43209877,88.77056553,0,0,5.569272977,3.302092099,13.62598647,13.17433576,11.25223779,11.01314179,885.6112661,916.4466922
Y,NOT_CALVAL,USGS,USGS,BDB-000044242_1,45.40345202,-122.7548185,USGS_051,"FANNO CREEK AT DURHAM, OR",2002,9,9/13/2002 0:00,256,targeted riffle,multi,,USGS_051__2002,USGS_051,ORCoast_216235,23.62,annual,23.17,23.62,19.46,ORCoast,Willamette Valley,WV,3c,Prairie Terraces,0.20811,82.1421,55.86962647,100.0494265,0.48842892,0.402217598,81.02454642,80.21453067,0,0.406490703,4.866595518,8.178023206,9.305479718,10.69095432,11.97019245,11.68374398,1044.815897,1050.134836
Y,NOT_CALVAL,USGS,USGS,BDB-000044245_1,45.40345202,-122.7548185,USGS_051,"FANNO CREEK AT DURHAM, OR",2002,9,9/27/2002 0:00,270,targeted riffle,multi,,USGS_051__2002,USGS_051,ORCoast_216235,23.62,annual,23.17,23.62,19.46,ORCoast,Willamette Valley,WV,3c,Prairie Terraces,0.20811,82.1421,55.86962647,100.0494265,0.48842892,0.402217598,81.02454642,80.21453067,0,0.406490703,4.866595518,8.178023206,9.305479718,10.69095432,11.97019245,11.68374398,1044.815897,1050.134836
Y,NOT_CALVAL,USGS,USGS,BDB-000044246_1,45.40345202,-122.7548185,USGS_051,"FANNO CREEK AT DURHAM, OR",2002,9,9/9/2002 0:00,252,targeted riffle,multi,,USGS_051__2002,USGS_051,ORCoast_216235,23.62,annual,23.17,23.62,19.46,ORCoast,Willamette Valley,WV,3c,Prairie Terraces,0.20811,82.1421,55.86962647,100.0494265,0.48842892,0.402217598,81.02454642,80.21453067,0,0.406490703,4.866595518,8.178023206,9.305479718,10.69095432,11.97019245,11.68374398,1044.815897,1050.134836
Y,NOT_CALVAL,USGS,USGS,BDB-000044854_1,47.30265108,-118.3691441,USGS_212,"CRAB CREEK AT ROCKY FORD ROAD NEAR RITZVILLE, WA",2004,8,8/9/2004 0:00,222,targeted riffle,multi,,,USGS_212,UpColYak_117079,25.2,annual,24.4,25.2,18.27,UpColYak,Columbia Plateau,CP,10a,Channeled Scablands,0.298906,1141.47,528.0031961,701.2069665,0.741676565,0.258111973,1.694915254,0.327288496,3.87409201,67.96396752,0,2.149018371,0.958878549,0.920562656,9.170906122,8.204170464,297.9001255,359.4259482
Y,NOT_CALVAL,USGS,USGS,BDB-000044963_1,45.68233568,-123.0695531,USGS_024,"EAST FORK DAIRY CREEK NEAR MEACHAM CORNER, OR",2002,9,9/18/2002 0:00,261,targeted riffle,multi,,USGS_024__2002,USGS_024,ORCoast_218403,20.08,annual,19.64,20.08,15.87,ORCoast,Willamette Valley,WV,3d,Valley Foothills,0.408977,87.6312,111.327,401.1261466,0.279231235,0.812418328,0,0.166379098,38.66666667,0.644975762,29.33333333,56.04202613,1.343561225,0.69451512,10.86320631,9.598376364,1307.077335,1639.141
Y,NOT_CALVAL,USGS,USGS,BDB-000044966_1,45.68233568,-123.0695531,USGS_024,"EAST FORK DAIRY CREEK NEAR MEACHAM CORNER, OR",2002,9,9/19/2002 0:00,262,targeted riffle,multi,,USGS_024__2002,USGS_024,ORCoast_218403,20.08,annual,19.64,20.08,15.87,ORCoast,Willamette Valley,WV,3d,Valley Foothills,0.408977,87.6312,111.327,401.1261466,0.279231235,0.812418328,0,0.166379098,38.66666667,0.644975762,29.33333333,56.04202613,1.343561225,0.69451512,10.86320631,9.598376364,1307.077335,1639.141
Y,NOT_CALVAL,USGS,USGS,BDB-000044967_1,45.68233568,-123.0695531,USGS_024,"EAST FORK DAIRY CREEK NEAR MEACHAM CORNER, OR",2002,9,9/20/2002 0:00,263,targeted riffle,multi,,USGS_024__2002,USGS_024,ORCoast_218403,20.08,annual,19.64,20.08,15.87,ORCoast,Willamette Valley,WV,3d,Valley Foothills,0.408977,87.6312,111.327,401.1261466,0.279231235,0.812418328,0,0.166379098,38.66666667,0.644975762,29.33333333,56.04202613,1.343561225,0.69451512,10.86320631,9.598376364,1307.077335,1639.141
Y,NOT_CALVAL,USGS,USGS,BDB-000044970_1,44.95567759,-122.6284199,USGS_059,"LITTLE ABIQUA CREEK NEAR SCOTTS MILLS, OR",2002,9,9/23/2002 0:00,266,targeted riffle,multi,,USGS_059__2002,USGS_059,ORCoast_211234,19.42,annual,18.97,19.42,14.09,ORCoast,Cascades,CA,4a,Western Cascades Lowlands and Valleys,3.246323,25.3368,332.1238921,560.9023064,0.629072523,0.8250277,0,0.021312873,3.516998828,0.106564365,39.97655334,62.9759875,0.176000896,1.149946348,10.38373944,9.39342816,1603.034691,1958.586497
Y,NOT_CALVAL,USGS,USGS,BDB-000044971_1,44.95567759,-122.6284199,USGS_059,"LITTLE ABIQUA CREEK NEAR SCOTTS MILLS, OR",2002,9,9/25/2002 0:00,268,targeted riffle,multi,,USGS_059__2002,USGS_059,ORCoast_211234,19.42,annual,18.97,19.42,14.09,ORCoast,Cascades,CA,4a,Western Cascades Lowlands and Valleys,3.246323,25.3368,332.1238921,560.9023064,0.629072523,0.8250277,0,0.021312873,3.516998828,0.106564365,39.97655334,62.9759875,0.176000896,1.149946348,10.38373944,9.39342816,1603.034691,1958.586497
Y,NOT_CALVAL,USGS,USGS,BDB-000045110_1,44.95567759,-122.6284199,USGS_059,"LITTLE ABIQUA CREEK NEAR SCOTTS MILLS, OR",2002,9,9/26/2002 0:00,269,targeted riffle,multi,,USGS_059__2002,USGS_059,ORCoast_211234,19.42,annual,18.97,19.42,14.09,ORCoast,Cascades,CA,4a,Western Cascades Lowlands and Valleys,3.246323,25.3368,332.1238921,560.9023064,0.629072523,0.8250277,0,0.021312873,3.516998828,0.106564365,39.97655334,62.9759875,0.176000896,1.149946348,10.38373944,9.39342816,1603.034691,1958.586497
Y,NOT_CALVAL,USGS,USGS,BDB-000046068_1,47.30265108,-118.3691441,USGS_212,"CRAB CREEK AT ROCKY FORD ROAD NEAR RITZVILLE, WA",2002,7,7/22/2002 0:00,203,targeted riffle,multi,USGS_212__2002-07-22 ,,USGS_212,UpColYak_117079,23.96,annual,24.4,23.96,18.27,UpColYak,Columbia Plateau,CP,10a,Channeled Scablands,0.298906,1141.47,528.0031961,701.2069665,0.741676565,0.258111973,1.694915254,0.327288496,3.87409201,67.96396752,0,2.149018371,0.958878549,0.920562656,9.170906122,8.204170464,297.9001255,359.4259482
Y,NOT_CALVAL,USGS,USGS,BDB-000046069_1,47.30265108,-118.3691441,USGS_212,"CRAB CREEK AT ROCKY FORD ROAD NEAR RITZVILLE, WA",2002,7,7/22/2002 0:00,203,targeted riffle,multi,USGS_212__2002-07-22 ,,USGS_212,UpColYak_117079,23.96,annual,24.4,23.96,18.27,UpColYak,Columbia Plateau,CP,10a,Channeled Scablands,0.298906,1141.47,528.0031961,701.2069665,0.741676565,0.258111973,1.694915254,0.327288496,3.87409201,67.96396752,0,2.149018371,0.958878549,0.920562656,9.170906122,8.204170464,297.9001255,359.4259482
Y,NOT_CALVAL,USGS,USGS,BDB-000046070_1,47.30265108,-118.3691441,USGS_212,"CRAB CREEK AT ROCKY FORD ROAD NEAR RITZVILLE, WA",2002,7,7/22/2002 0:00,203,targeted riffle,multi,USGS_212__2002-07-22 ,,USGS_212,UpColYak_117079,23.96,annual,24.4,23.96,18.27,UpColYak,Columbia Plateau,CP,10a,Channeled Scablands,0.298906,1141.47,528.0031961,701.2069665,0.741676565,0.258111973,1.694915254,0.327288496,3.87409201,67.96396752,0,2.149018371,0.958878549,0.920562656,9.170906122,8.204170464,297.9001255,359.4259482
Y,NOT_CALVAL,USGS,USGS,BDB-000046242_1,47.69565378,-122.2762368,USGS_119,"THORNTON CREEK NEAR SEATTLE, WA",2002,8,8/27/2002 0:00,239,targeted riffle,multi,,,USGS_119,WACoast_118080,19.12,annual,18.84,19.12,15.3,WACoast,Puget Lowland,PL,2f,Central Puget Lowland,0.591904,31.0167,59.5226749,97.43784232,0.45346892,0.449489527,85.43209877,88.77056553,0,0,5.569272977,3.302092099,13.62598647,13.17433576,11.25223779,11.01314179,885.6112661,916.4466922
Y,NOT_CALVAL,USGS,USGS,BDB-000046245_1,47.51425666,-123.3298868,USGS_077,"NF SKOKOMISH R BL STAIRCASE RPDS NR HOODSPORT, WA",2002,8,8/29/2002 0:00,241,targeted riffle,multi,,,USGS_077,WACoast_115932,12.49,annual,12.22,12.49,11.34,WACoast,Coast Range,CR,1d,Volcanics,0.564903,147.429,434.8711087,988.3068988,0.894492169,0.875599809,0,0.073255601,0,0.01098834,86.95652174,81.62322203,1.772557044,0.141584547,9.560851338,6.761849679,3432.89851,3786.136963
Y,CAL,USGS,USGS,BDB-000047458_1,44.049,-123.1784167,USGS_015,"AMAZON CREEK NEAR DANEBO ROAD AT EUGENE, OR",2004,9,9/21/2004 0:00,265,targeted riffle,multi,,,USGS_015,ORCoast_203699,28.59,annual,27.99,28.59,21.47,ORCoast,Willamette Valley,WV,3c,Prairie Terraces,0.14258,64.9521,130.2438884,167.2849415,0.233689997,0.327969131,56.74753203,56.44805942,29.20079815,13.36723524,7.556185675,19.63446909,7.757808929,9.240981702,11.37324588,11.35402153,1136.519185,1149.998091
Y,NOT_CALVAL,USGS,USGS,BDB-000047459_1,44.84123201,-122.9917606,USGS_031,"BATTLE CREEK NEAR TURNER, OR",2004,9,9/27/2004 0:00,271,targeted riffle,multi,,,USGS_031,ORCoast_210673,23.88,annual,23.27,23.88,18.06,ORCoast,Willamette Valley,WV,3d,Valley Foothills,0.641679,29.5776,146.773023,181.7079881,0.248129513,0.206812435,29.84687577,28.6179406,23.84539392,39.12792113,26.82143739,17.45679163,6.216732712,6.30533916,11.3526937,11.1408977,1166.812082,1218.893851
Y,VAL,USGS,USGS,BDB-000047462_1,45.52067222,-122.8995466,USGS_036,"BEAVERTON CREEK AT SW 216TH AVE, NR ORENCO, OR",2004,9,9/28/2004 0:00,272,targeted riffle,single,,,,ORCoast_217190,24.13,annual,23.53,24.13,19.85,ORCoast,Willamette Valley,WV,3c,Prairie Terraces,0.063049,97.8903,56.26823512,102.7000243,0.455438821,0.424363493,86.79245283,79.51216821,0,0.624270229,0.406386067,8.97055173,11.7631625,10.4455156,11.76839823,11.52304866,978.3166344,1044.058434
Y,CAL,USGS,USGS,BDB-000047463_1,45.29261783,-122.9828789,USGS_032,"CHEHALEM CREEK AT NEWBERG, OR",2004,9,9/30/2004 0:00,274,targeted riffle,single,,,,ORCoast_215343,24.75,annual,24.15,24.75,18.86,ORCoast,Willamette Valley,WV,3c,Prairie Terraces,0.162624,103.7835,52.46711671,120.4553508,0.302809695,0.220188957,57.23793677,9.620604431,19.44378417,50.71586524,6.845733302,23.46615792,9.705741999,2.969665539,11.89087924,11.46683199,1026.157594,1172.480315
Y,CAL,USGS,USGS,BDB-000047596_1,45.37484043,-122.8564876,USGS_041,"CHICKEN CREEK NEAR SHERWOOD, OR",2004,10,10/1/2004 0:00,275,targeted riffle,single,,,,ORCoast_215978,22.51,annual,21.9,22.51,18.21,ORCoast,Willamette Valley,WV,3c,Prairie Terraces,0.379064,41.3613,51.34829064,133.7987939,0.228199538,0.242606112,34.03940887,21.32210545,43.69458128,39.03431469,9.704433498,27.59318493,3.315049223,3.892123114,11.90648413,11.45562166,1023.225698,1086.688622
Y,VAL,USGS,USGS,BDB-000047598_1,45.00595257,-123.0245413,USGS_030,"CLAGGETT CREEK AT KEIZER, OR",2004,9,9/27/2004 0:00,271,targeted riffle,single,,,,ORCoast_211828,23.97,annual,23.37,23.97,18.26,ORCoast,Willamette Valley,WV,3c,Prairie Terraces,0.072296,34.2486,43.32473408,51.07638776,0.366769956,0.367706669,86.99586858,91.46213276,1.941110893,1.019603721,0,0,11.09606899,12.03607627,11.74223606,11.72386999,1030.306808,1023.175365
Y,CAL,USGS,USGS,BDB-000047600_1,45.72233868,-122.5909306,USGS_093,"CURTIN CREEK NEAR VANCOUVER, WA",2004,9,9/17/2004 0:00,261,targeted riffle,single,,,,ORCoast_218109,22.93,annual,22.32,22.93,17.3,ORCoast,Willamette Valley,WV,3a,Portland/Vancouver Basin,0.269958,33.4728,69.86242952,74.2440584,0.29345465,0.373146122,32.79436153,61.17713487,37.43781095,14.60529146,3.689883914,1.451925145,2.984928709,6.601695562,11.34154034,11.34481911,1158.250813,1143.808299
Y,CAL,USGS,USGS,BDB-000047601_1,45.37512083,-122.3345318,USGS_074,"DEEP CREEK NEAR SANDY, OR",2004,9,9/15/2004 0:00,259,targeted riffle,single,,,,ORCoast_215609,20.83,annual,20.23,20.83,15.67,ORCoast,Willamette Valley,WV,3d,Valley Foothills,1.445022,36.2304,191.6574936,294.6200271,0.371268673,0.434310338,0.949482654,0.648350556,34.79001826,26.001093,46.0499087,41.13672496,2.873570311,1.883654073,11.3112538,10.88546496,1430.860198,1573.622879
Y,NOT_CALVAL,USGS,USGS,BDB-000047604_1,45.68233568,-123.0695531,USGS_024,"EAST FORK DAIRY CREEK NEAR MEACHAM CORNER, OR",2004,9,9/20/2004 0:00,264,targeted riffle,multi,,,USGS_024,ORCoast_218403,20.24,annual,19.64,20.24,15.87,ORCoast,Willamette Valley,WV,3d,Valley Foothills,0.408977,87.6312,111.327,401.1261466,0.279231235,0.812418328,0,0.166379098,38.66666667,0.644975762,29.33333333,56.04202613,1.343561225,0.69451512,10.86320631,9.598376364,1307.077335,1639.141
Y,NOT_CALVAL,USGS,USGS,BDB-000047821_1,45.40345202,-122.7548185,USGS_051,"FANNO CREEK AT DURHAM, OR",2004,9,9/21/2004 0:00,265,targeted riffle,multi,,,USGS_051,ORCoast_216235,23.78,annual,23.17,23.78,19.46,ORCoast,Willamette Valley,WV,3c,Prairie Terraces,0.20811,82.1421,55.86962647,100.0494265,0.48842892,0.402217598,81.02454642,80.21453067,0,0.406490703,4.866595518,8.178023206,9.305479718,10.69095432,11.97019245,11.68374398,1044.815897,1050.134836
Y,NOT_CALVAL,USGS,USGS,BDB-000047823_1,45.58483436,-123.2170556,USGS_013,"ILER CREEK NEAR FOREST GROVE, OR",2004,9,9/23/2004 0:00,267,targeted riffle,multi,,,USGS_013,ORCoast_217788,22.62,annual,22.02,22.62,17.04,ORCoast,Willamette Valley,WV,3c,Prairie Terraces,1.56164,12.8745,171.8636887,284.6901342,0.460221222,0.57414067,0.959232614,0.384480951,20.20928712,6.48025166,42.27163724,68.34673191,1.360625675,0.786919474,10.87658833,10.29618062,1311.393195,1537.089414
Y,NOT_CALVAL,USGS,USGS,BDB-000047824_1,45.48650906,-122.4878685,USGS_065,"JOHNSON CREEK AT CIRCLE AVE, OR",2004,9,9/14/2004 0:00,258,targeted riffle,multi,,,USGS_065,ORCoast_216759,24.95,annual,24.34,24.95,19.02,ORCoast,Willamette Valley,WV,3a,Portland/Vancouver Basin,0.197527,56.3778,106.7401846,162.9003014,0.323662331,0.225083898,56.10859729,33.65473644,8.452488688,28.52878261,15.09502262,20.84543916,7.566427283,5.432311683,11.70142062,11.43406687,1268.372252,1403.977465
Y,CAL,USGS,USGS,BDB-000047827_1,45.42373098,-122.6134262,USGS_061,"KELLOGG CREEK AT MILWAUKIE, OR",2004,9,9/13/2004 0:00,257,targeted riffle,single,,,,ORCoast_216234,23.09,annual,22.48,23.09,17.91,ORCoast,Willamette Valley,WV,3a,Portland/Vancouver Basin,0.273295,39.1761,48.170168,87.49169956,0.571317375,0.439568056,75.44,78.65790622,0,0.682303752,12.24,7.183716603,10.10537676,9.718333367,12.15303536,11.9453346,1071.617234,1133.922183
Y,CAL,USGS,USGS,BDB-000047829_1,43.86984733,-122.8103481,USGS_047,"LOST CREEK NEAR DEXTER, OR",2004,9,9/22/2004 0:00,266,targeted riffle,single,,,,ORCoast_202303,22.87,annual,22.27,22.87,16.89,ORCoast,Willamette Valley,WV,3d,Valley Foothills,0.647166,83.3841,448.5366701,621.0506748,0.769160538,0.778731485,0,0,0.690846287,0.589320986,55.09499136,82.89565996,1.489663785,1.670869207,10.65487356,10.22322578,1222.807635,1341.745219
Y,CAL,USGS,USGS,BDB-000047830_1,45.1655,-122.4868889,USGS_066,MILK CREEK AT CAMP ADAMS,2004,9,9/22/2004 0:00,266,targeted riffle,single,,,,ORCoast_213386,21.62,annual,21.01,21.62,16.52,ORCoast,Willamette Valley,WV,3d,Valley Foothills,1.0704,102.7125,138.601735,452.0572627,0.824737011,0.551866557,0,0.295290252,0,9.777875137,48.26498423,63.09485214,2.805580836,2.47172327,11.76179311,10.04432039,1207.090405,1781.47777
Y,CAL,USGS,USGS,BDB-000047833_1,45.39345438,-122.4109219,USGS_068,"NORTH FORK DEEP CREEK AT BARTON, OR",2004,9,9/16/2004 0:00,260,targeted riffle,single,,,,ORCoast_215864,22.86,annual,22.26,22.86,16.97,ORCoast,Willamette Valley,WV,3d,Valley Foothills,0.794147,118.1943,73.36655696,234.5731255,0.474007159,0.302071125,1.265822785,7.188925354,20.25316456,39.78542112,32.40506329,28.33233075,3.479422873,2.700160943,11.98023107,11.15309913,1204.621949,1504.945443
Y,CAL,USGS,USGS,BDB-000047834_1,45.36344579,-123.3314988,USGS_005,"NORTH YAMHILL CREEK NEAR YAMHILL, OR",2004,10,10/5/2004 0:00,279,targeted riffle,single,,,,ORCoast_216206,22.14,annual,21.53,22.14,16.62,ORCoast,Willamette Valley,WV,3d,Valley Foothills,0.667405,66.9321,148.6306287,447.3528681,0.707297902,0.800708743,6.656804734,0.310613293,2.662721893,0.287754306,43.26923077,65.9064933,3.371156107,2.493620469,11.20156984,9.808959878,1456.309213,2032.999646
Y,CAL,USGS,USGS,BDB-000047837_1,45.16651181,-122.4900861,USGS_064,"NATE CREEK NEAR COLTON,OREG.",2004,9,9/22/2004 0:00,266,targeted riffle,single,,,,ORCoast_213627,21.45,annual,20.84,21.45,16.38,ORCoast,Willamette Valley,WV,3d,Valley Foothills,0.623977,28.7163,183.6197112,279.4791234,0.556948895,0.512464897,0,0.025072868,10.07796708,14.81493089,71.931851,56.07233522,1.196347399,1.615658731,11.55139778,10.90942793,1230.652514,1448.06536
Y,NOT_CALVAL,USGS,USGS,BDB-000047953_1,45.68233568,-123.0695531,USGS_024,"EAST FORK DAIRY CREEK NEAR MEACHAM CORNER, OR",2009,9,9/17/2009 0:00,260,targeted riffle,multi,,,USGS_024,ORCoast_218403,20.64,annual,19.64,20.64,15.87,ORCoast,Willamette Valley,WV,3d,Valley Foothills,0.408977,87.6312,111.327,401.1261466,0.279231235,0.812418328,0,0.166379098,38.66666667,0.644975762,29.33333333,56.04202613,1.343561225,0.69451512,10.86320631,9.598376364,1307.077335,1639.141
Y,CAL,USGS,USGS,BDB-000047993_1,44.55706584,-123.2823218,USGS_008,"OAK CREEK AT CORVALLIS, OR",2004,9,9/21/2004 0:00,265,targeted riffle,single,,,,ORCoast_207954,23.68,annual,23.07,23.68,18.81,ORCoast,Willamette Valley,WV,3b,Willamette River and Tributaries Gallery Forest,0.566356,32.8221,83.05836472,222.3915493,0.243741676,0.438703656,33.96901073,5.645891031,34.49344458,17.86997176,7.794994041,51.99484494,5.783475221,2.368097259,11.46599996,10.99161717,1095.083051,1414.863137
Y,NOT_CALVAL,USGS,USGS,BDB-000047995_1,44.93067537,-123.033985,USGS_028,"PRINGLE CREEK AT SALEM, OR",2004,9,9/27/2004 0:00,271,targeted riffle,multi,,,USGS_028,ORCoast_211318,24.18,annual,23.57,24.18,18.66,ORCoast,Willamette Valley,WV,3c,Prairie Terraces,0.778836,31.2831,57.22926533,94.76831957,0.369358502,0.39739252,82.02666667,82.1485083,1.76,1.426968555,0,1.196812336,10.18922643,10.60097368,11.6687415,11.55576867,1008.10841,1057.60962
Y,CAL,USGS,USGS,BDB-000047996_1,45.52372768,-122.9092692,USGS_034,"ROCK CREEK AT QUATAMA ROAD NEAR HILLSBORO, OR",2004,9,9/28/2004 0:00,272,targeted riffle,single,,,,ORCoast_217366,22.27,annual,21.67,22.27,18.32,ORCoast,Willamette Valley,WV,3c,Prairie Terraces,0.139833,68.103,61.26809849,135.1255656,0.409836185,0.199276609,84.22111432,27.28954672,2.449050993,30.30130831,0.813434794,25.2649663,9.811512104,4.170934901,11.72084612,11.16307384,985.5886018,1118.953467
Y,NOT_CALVAL,USGS,USGS,BDB-000047999_1,45.85133333,-122.5221194,USGS_100,"ROCK CREEK NEAR BATTLE GROUND, WA",2004,9,9/24/2004 0:00,268,targeted riffle,multi,,,USGS_100,ORCoast_219267,22.16,annual,21.56,22.16,16.72,ORCoast,Willamette Valley,WV,3d,Valley Foothills,1.81248,34.9326,166.7506471,220.6781919,0.532695292,0.613616706,5.805866344,3.862008554,16.73218426,12.20178286,42.01189396,44.44272685,2.737034964,2.684172816,10.58866107,10.41224728,1603.130468,1856.330769
Y,CAL,USGS,USGS,BDB-000048000_1,45.76344963,-122.5006522,USGS_102,"SALMON CREEK AT 167TH, NEAR BATTLE GROUND, WA",2004,9,9/16/2004 0:00,260,targeted riffle,single,,,,ORCoast_218671,22.36,annual,21.75,22.36,16.83,ORCoast,Willamette Valley,WV,3a,Portland/Vancouver Basin,0.591353,58.9662,104.6332121,282.1527461,0.298659637,0.650921254,11.51515152,8.287798773,35.07070707,5.018468207,9.414141414,48.52254342,3.787787977,2.724400101,10.9361373,10.26459262,1356.110331,2023.639315
Y,CAL,USGS,USGS,BDB-000048002_1,43.79512291,-123.0684138,USGS_025,"SILK CREEK NEAR COTTAGE GROVE, OR",2004,9,9/22/2004 0:00,266,targeted riffle,single,,,,ORCoast_201944,21.45,annual,20.84,21.45,16.47,ORCoast,Willamette Valley,WV,3b,Willamette River and Tributaries Gallery Forest,0.303336,41.9346,229.6134589,311.6777334,0.381697706,0.535164923,21.42211509,1.725544061,7.200964146,10.39189595,29.19554083,50.43138602,6.934498297,2.787836863,11.26018057,11.06432273,1156.765554,1230.99864
Y,NOT_CALVAL,USGS,USGS,BDB-000048113_1,47.69565378,-122.2762368,USGS_119,"THORNTON CREEK NEAR SEATTLE, WA",2009,9,9/2/2009 0:00,245,targeted riffle,multi,,,USGS_119,WACoast_118080,19.94,annual,18.84,19.94,15.3,WACoast,Puget Lowland,PL,2f,Central Puget Lowland,0.591904,31.0167,59.5226749,97.43784232,0.45346892,0.449489527,85.43209877,88.77056553,0,0,5.569272977,3.302092099,13.62598647,13.17433576,11.25223779,11.01314179,885.6112661,916.4466922
Y,NOT_CALVAL,USGS,USGS,BDB-000048114_1,47.51425666,-123.3298868,USGS_077,"NF SKOKOMISH R BL STAIRCASE RPDS NR HOODSPORT, WA",2009,9,9/14/2009 0:00,257,targeted riffle,multi,,,USGS_077,WACoast_115932,13.31,annual,12.22,13.31,11.34,WACoast,Coast Range,CR,1d,Volcanics,0.564903,147.429,434.8711087,988.3068988,0.894492169,0.875599809,0,0.073255601,0,0.01098834,86.95652174,81.62322203,1.772557044,0.141584547,9.560851338,6.761849679,3432.89851,3786.136963
Y,CAL,USGS,USGS,BDB-000048203_1,45.76178089,-122.881493,USGS_039,"SOUTH SCAPPOSE CREEK AT SCAPPOSE, OR",2004,9,9/24/2004 0:00,268,targeted riffle,single,,,,ORCoast_218768,24.26,annual,23.66,24.26,18.46,ORCoast,Willamette Valley,WV,3a,Portland/Vancouver Basin,0.138586,66.1752,43.41898738,270.5248798,0.492227908,0.774575194,49.86149584,2.819334131,0,2.074039822,9.079716836,53.89511479,8.210159595,1.770957685,11.45807914,10.21391882,1099.652729,1415.885915
Y,NOT_CALVAL,USGS,USGS,BDB-000048206_1,45.40373193,-122.3600883,USGS_073,"TICKLE CREEK NEAR BORING, OR",2004,9,9/15/2004 0:00,259,targeted riffle,multi,,,USGS_073,ORCoast_215917,21.43,annual,20.83,21.43,16.17,ORCoast,Willamette Valley,WV,3d,Valley Foothills,1.262455,36.0243,184.6641926,251.4867522,0.39959118,0.292096153,0.764934434,10.92012891,33.86352598,35.25370375,46.34531326,29.78739351,1.502801199,3.529801528,11.34292802,11.07667319,1444.806879,1556.458779
Y,CAL,USGS,USGS,BDB-000048207_1,45.43067476,-122.6737057,USGS_057,"TRYON CREEK NEAR LAKE OSWEGO, OR",2004,9,9/29/2004 0:00,273,targeted riffle,single,,,,ORCoast_216379,21.15,annual,20.55,21.15,16.68,ORCoast,Willamette Valley,WV,3d,Valley Foothills,3.439426,2.3184,99.96446607,111.4264946,0.635085245,0.633925066,49.77753059,52.60093168,0,0,29.810901,27.79503106,7.201491723,7.23530525,11.95945005,11.91095039,1100.832511,1100.706273
Y,NOT_CALVAL,USGS,USGS,BDB-000048210_1,45.7505,-122.7167778,USGS_085,"WHIPPLE CREEK NEAR SALMON CREEK, WA",2004,9,9/17/2004 0:00,261,targeted riffle,multi,,,USGS_085,ORCoast_218681,23.01,annual,22.41,23.01,18.3,ORCoast,Willamette Valley,WV,3a,Portland/Vancouver Basin,0.822115,23.9697,44.29523205,67.07804153,0.284691726,0.363976881,25.10991695,31.76885818,46.21397167,26.12548342,7.816316561,17.59846807,3.234810674,4.552270936,11.46600336,11.29641671,1085.787178,1112.243173
Y,NOT_CALVAL,USGS,USGS,BDB-000048212_1,44.95567759,-122.6284199,USGS_059,"LITTLE ABIQUA CREEK NEAR SCOTTS MILLS, OR",2004,10,10/14/2004 0:00,288,targeted riffle,multi,,,USGS_059,ORCoast_211234,19.58,annual,18.97,19.58,14.09,ORCoast,Cascades,CA,4a,Western Cascades Lowlands and Valleys,3.246323,25.3368,332.1238921,560.9023064,0.629072523,0.8250277,0,0.021312873,3.516998828,0.106564365,39.97655334,62.9759875,0.176000896,1.149946348,10.38373944,9.39342816,1603.034691,1958.586497
Y,NOT_CALVAL,USGS,USGS,BDB-000048324_1,47.30265108,-118.3691441,USGS_212,"CRAB CREEK AT ROCKY FORD ROAD NEAR RITZVILLE, WA",2009,8,8/19/2009 0:00,231,targeted riffle,multi,,,USGS_212,UpColYak_117079,25.32,annual,24.4,25.32,18.27,UpColYak,Columbia Plateau,CP,10a,Channeled Scablands,0.298906,1141.47,528.0031961,701.2069665,0.741676565,0.258111973,1.694915254,0.327288496,3.87409201,67.96396752,0,2.149018371,0.958878549,0.920562656,9.170906122,8.204170464,297.9001255,359.4259482
Y,NOT_CALVAL,USGS,USGS,BDB-000048549_1,47.74287773,-121.9412324,USGS_150,"CHERRY CREEK BELOW MARGARET CREEK NEAR DUVALL, WA",2007,8,8/14/2007 0:00,226,targeted riffle,multi,,,USGS_150,WACoast_118332,20.71,annual,20.34,20.71,15.65,WACoast,Puget Lowland,PL,2e,Eastern Puget Uplands,1.564586,50.3343,121.8003879,250.8305852,0.751019511,0.807521752,5.128427629,1.863143026,0.798333912,0.164500152,67.78896217,73.47792658,3.636295679,2.639598693,10.69496407,10.01032845,1411.24241,1728.500277
Y,CAL,USGS,USGS,BDB-000048554_1,47.17760041,-122.3178978,USGS_115,"CLARKS CREEK AT PUYALLUP, WA",2007,7,7/26/2007 0:00,207,targeted riffle,single,,,,WACoast_109779,18.6,annual,18.23,18.6,14.6,WACoast,Puget Lowland,PL,2g,Southern Puget Prairies,0.221007,57.2706,117.1669659,117.1669659,0.528249555,0.528249555,67.83794827,67.83794827,1.041895842,1.041895842,9.936511928,9.936511928,8.071627577,8.071627577,10.75622296,10.75622296,1072.052525,1072.052525
Y,CAL,USGS,USGS,BDB-000048556_1,47.56843293,-122.1817889,USGS_132,"COAL CREEK AT BELLEVUE, WA",2007,8,8/20/2007 0:00,232,targeted riffle,multi,,,USGS_132,WACoast_115588,19.52,annual,19.15,19.52,15.15,WACoast,Puget Lowland,PL,2f,Central Puget Lowland,1.210163,18.2844,35.82795245,206.9424429,0.464827505,0.603044936,80.52147239,47.332152,0,0.093522347,9.81595092,37.0889939,10.28422634,7.643108184,11.56570178,10.39367544,962.7207427,1249.243441
Y,NOT_CALVAL,USGS,USGS,BDB-000048742_1,47.30265108,-118.3691441,USGS_212,"CRAB CREEK AT ROCKY FORD ROAD NEAR RITZVILLE, WA",2006,9,9/28/2006 0:00,271,targeted riffle,multi,,,USGS_212,UpColYak_117079,24.87,annual,24.4,24.87,18.27,UpColYak,Columbia Plateau,CP,10a,Channeled Scablands,0.298906,1141.47,528.0031961,701.2069665,0.741676565,0.258111973,1.694915254,0.327288496,3.87409201,67.96396752,0,2.149018371,0.958878549,0.920562656,9.170906122,8.204170464,297.9001255,359.4259482
Y,NOT_CALVAL,USGS,USGS,BDB-000048925_1,47.40842768,-122.8170861,USGS_081,"COULTER CREEK NEAR ALLYN, WA",2007,8,8/27/2007 0:00,239,targeted riffle,multi,,,USGS_081,WACoast_113700,15.42,annual,15.05,15.42,12.43,WACoast,Puget Lowland,PL,2f,Central Puget Lowland,0.720116,33.5475,28.06278934,107.9698184,0.808781229,0.860706513,3.913405495,0.657276995,0,0,52.62281432,61.92622401,1.592819083,1.082677571,10.79832817,10.28775775,1331.454086,1382.572764
Y,NOT_CALVAL,USGS,USGS,BDB-000048927_1,47.75287241,-122.6445933,USGS_092,"DOGFISH CREEK NEAR POULSBO, WA",2007,9,9/11/2007 0:00,254,targeted riffle,multi,,,USGS_092,WACoast_119389,17.03,annual,16.67,17.03,13.69,WACoast,Puget Lowland,PL,2f,Central Puget Lowland,0.634276,20.9052,60.56492977,77.4188643,0.599324245,0.62672636,54.6259542,22.07249871,0,1.889960393,22.15267176,47.07680386,7.484921653,4.562956185,10.6988267,10.54400469,1019.112332,1019.76701
Y,NOT_CALVAL,USGS,USGS,BDB-000048929_1,47.98759814,-122.0342961,USGS_144,"DUBUQUE CREEK BLW PANTHER CREEK NR LK STEVENS, WA",2007,8,8/8/2007 0:00,220,targeted riffle,multi,,,USGS_144,WACoast_122719,20.64,annual,20.27,20.64,15.47,WACoast,Puget Lowland,PL,2e,Eastern Puget Uplands,1.575411,33.3153,50.03310757,141.9559424,0.494565323,0.731172778,23.90438247,8.026042089,7.96812749,0.056730691,34.66135458,63.73287949,4.913852581,2.855831277,10.75380995,10.4992855,1159.293418,1387.56502
Y,NOT_CALVAL,USGS,USGS,BDB-000049007_1,45.68233568,-123.0695531,USGS_024,"EAST FORK DAIRY CREEK NEAR MEACHAM CORNER, OR",2005,9,9/15/2005 0:00,258,targeted riffle,multi,,,USGS_024,ORCoast_218403,19.59,annual,19.64,19.59,15.87,ORCoast,Willamette Valley,WV,3d,Valley Foothills,0.408977,87.6312,111.327,401.1261466,0.279231235,0.812418328,0,0.166379098,38.66666667,0.644975762,29.33333333,56.04202613,1.343561225,0.69451512,10.86320631,9.598376364,1307.077335,1639.141
Y,NOT_CALVAL,USGS,USGS,BDB-000049008_1,45.40345202,-122.7548185,USGS_051,"FANNO CREEK AT DURHAM, OR",2005,9,9/20/2005 0:00,263,targeted riffle,multi,,,USGS_051,ORCoast_216235,23.12,annual,23.17,23.12,19.46,ORCoast,Willamette Valley,WV,3c,Prairie Terraces,0.20811,82.1421,55.86962647,100.0494265,0.48842892,0.402217598,81.02454642,80.21453067,0,0.406490703,4.866595518,8.178023206,9.305479718,10.69095432,11.97019245,11.68374398,1044.815897,1050.134836
Y,NOT_CALVAL,USGS,USGS,BDB-000049092_1,47.51425666,-123.3298868,USGS_077,"NF SKOKOMISH R BL STAIRCASE RPDS NR HOODSPORT, WA",2008,9,9/4/2008 0:00,248,targeted riffle,multi,,USGS_077__2008,USGS_077,WACoast_115932,11.82,annual,12.22,11.82,11.34,WACoast,Coast Range,CR,1d,Volcanics,0.564903,147.429,434.8711087,988.3068988,0.894492169,0.875599809,0,0.073255601,0,0.01098834,86.95652174,81.62322203,1.772557044,0.141584547,9.560851338,6.761849679,3432.89851,3786.136963
Y,NOT_CALVAL,USGS,USGS,BDB-000049094_1,47.51425666,-123.3298868,USGS_077,"NF SKOKOMISH R BL STAIRCASE RPDS NR HOODSPORT, WA",2008,9,9/15/2008 0:00,259,targeted riffle,multi,,USGS_077__2008,USGS_077,WACoast_115932,11.82,annual,12.22,11.82,11.34,WACoast,Coast Range,CR,1d,Volcanics,0.564903,147.429,434.8711087,988.3068988,0.894492169,0.875599809,0,0.073255601,0,0.01098834,86.95652174,81.62322203,1.772557044,0.141584547,9.560851338,6.761849679,3432.89851,3786.136963
Y,NOT_CALVAL,USGS,USGS,BDB-000049111_1,47.69565378,-122.2762368,USGS_119,"THORNTON CREEK NEAR SEATTLE, WA",2006,8,8/15/2006 0:00,227,targeted riffle,multi,,,USGS_119,WACoast_118080,19.05,annual,18.84,19.05,15.3,WACoast,Puget Lowland,PL,2f,Central Puget Lowland,0.591904,31.0167,59.5226749,97.43784232,0.45346892,0.449489527,85.43209877,88.77056553,0,0,5.569272977,3.302092099,13.62598647,13.17433576,11.25223779,11.01314179,885.6112661,916.4466922
Y,NOT_CALVAL,USGS,USGS,BDB-000049114_1,47.51425666,-123.3298868,USGS_077,"NF SKOKOMISH R BL STAIRCASE RPDS NR HOODSPORT, WA",2006,9,9/20/2006 0:00,263,targeted riffle,multi,,,USGS_077,WACoast_115932,12.43,annual,12.22,12.43,11.34,WACoast,Coast Range,CR,1d,Volcanics,0.564903,147.429,434.8711087,988.3068988,0.894492169,0.875599809,0,0.073255601,0,0.01098834,86.95652174,81.62322203,1.772557044,0.141584547,9.560851338,6.761849679,3432.89851,3786.136963
Y,NOT_CALVAL,USGS,USGS,BDB-000049249_1,45.40345202,-122.7548185,USGS_051,"FANNO CREEK AT DURHAM, OR",2008,9,9/24/2008 0:00,268,targeted riffle,multi,,USGS_051__2008,USGS_051,ORCoast_216235,22.75,annual,23.17,22.75,19.46,ORCoast,Willamette Valley,WV,3c,Prairie Terraces,0.20811,82.1421,55.86962647,100.0494265,0.48842892,0.402217598,81.02454642,80.21453067,0,0.406490703,4.866595518,8.178023206,9.305479718,10.69095432,11.97019245,11.68374398,1044.815897,1050.134836
Y,NOT_CALVAL,USGS,USGS,BDB-000049251_1,45.40345202,-122.7548185,USGS_051,"FANNO CREEK AT DURHAM, OR",2008,8,8/12/2008 0:00,225,targeted riffle,multi,,USGS_051__2008,USGS_051,ORCoast_216235,22.75,annual,23.17,22.75,19.46,ORCoast,Willamette Valley,WV,3c,Prairie Terraces,0.20811,82.1421,55.86962647,100.0494265,0.48842892,0.402217598,81.02454642,80.21453067,0,0.406490703,4.866595518,8.178023206,9.305479718,10.69095432,11.97019245,11.68374398,1044.815897,1050.134836
Y,NOT_CALVAL,USGS,USGS,BDB-000049253_1,45.68233568,-123.0695531,USGS_024,"EAST FORK DAIRY CREEK NEAR MEACHAM CORNER, OR",2008,9,9/16/2008 0:00,260,targeted riffle,multi,,,USGS_024,ORCoast_218403,19.22,annual,19.64,19.22,15.87,ORCoast,Willamette Valley,WV,3d,Valley Foothills,0.408977,87.6312,111.327,401.1261466,0.279231235,0.812418328,0,0.166379098,38.66666667,0.644975762,29.33333333,56.04202613,1.343561225,0.69451512,10.86320631,9.598376364,1307.077335,1639.141
Y,CAL,USGS,USGS,BDB-000049311_1,47.52703872,-122.7054187,USGS_086,"GORST CREEK NEAR GORST, WA",2007,8,8/2/2007 0:00,214,targeted riffle,single,,,,WACoast_115621,15.46,annual,15.1,15.46,12.1,WACoast,Puget Lowland,PL,2f,Central Puget Lowland,1.060052,23.0139,33.10848485,133.0996555,0.623747487,0.76238394,38.27751196,6.37049783,0,0,33.01435407,60.54905948,6.34518649,1.947733977,10.95755948,10.26813192,1327.431603,1447.155973
Y,VAL,USGS,USGS,BDB-000049320_1,47.55232299,-122.0478975,USGS_142,"ISSAQUAH CREEK NEAR MOUTH NEAR ISSAQUAH, WA",2007,8,8/13/2007 0:00,225,targeted riffle,single,,,,WACoast_115163,20.42,annual,20.05,20.42,15.8,WACoast,Puget Lowland,PL,2f,Central Puget Lowland,0.234234,143.8155,59.01295775,280.3570429,0.580922975,0.626078645,48.89336016,13.97415439,0,2.20407397,17.74647887,68.16796521,6.719820315,4.167612907,11.25865727,9.918494702,1068.381067,1620.119905
Y,NOT_CALVAL,USGS,USGS,BDB-000049380_1,47.69565378,-122.2762368,USGS_119,"THORNTON CREEK NEAR SEATTLE, WA",2005,8,8/18/2005 0:00,230,targeted riffle,multi,,,USGS_119,WACoast_118080,18.64,annual,18.84,18.64,15.3,WACoast,Puget Lowland,PL,2f,Central Puget Lowland,0.591904,31.0167,59.5226749,97.43784232,0.45346892,0.449489527,85.43209877,88.77056553,0,0,5.569272977,3.302092099,13.62598647,13.17433576,11.25223779,11.01314179,885.6112661,916.4466922
Y,NOT_CALVAL,USGS,USGS,BDB-000049381_1,47.51425666,-123.3298868,USGS_077,"NF SKOKOMISH R BL STAIRCASE RPDS NR HOODSPORT, WA",2005,8,8/23/2005 0:00,235,targeted riffle,multi,,,USGS_077,WACoast_115932,12.01,annual,12.22,12.01,11.34,WACoast,Coast Range,CR,1d,Volcanics,0.564903,147.429,434.8711087,988.3068988,0.894492169,0.875599809,0,0.073255601,0,0.01098834,86.95652174,81.62322203,1.772557044,0.141584547,9.560851338,6.761849679,3432.89851,3786.136963
Y,NOT_CALVAL,USGS,USGS,BDB-000049530_1,47.70732072,-122.2154024,USGS_129,"JUANITA CREEK NEAR KIRKLAND, WA",2007,9,9/9/2007 0:00,252,targeted riffle,multi,,,USGS_129,WACoast_118054,19.45,annual,19.09,19.45,15.64,WACoast,Puget Lowland,PL,2f,Central Puget Lowland,1.108576,17.6814,43.9793545,73.38159727,0.400080544,0.419021678,77.72486772,79.50727884,0,0,13.43915344,10.31253181,13.45850029,13.60937868,11.39524551,11.15708281,969.06804,994.0074202
